name,address,postcode,lat,long,web
German Occupation Museum,"Forest, Guernsey, Channel Islands, GY8 0BG",GY8 0BG,,
La Hougue Bie Museum,"La Route de la Hougue Bie, Grouville, Jersey, Channel Islands, JE2 7UA",JE2 7UA,,,www.jerseyheritage.org
Castle Cornet,"Castle Emplacement, St Peter Port, Guernsey, Channel Islands, GY1 1UG",GY1 1UG,,,www.museums.gov.gg
Fort Grey Shipwreck Museum,"Guernsey Museums, Candie Gardens, St Peter Port, Guernsey, GY1 2AX",GY1 2AX,,,www.museums.gov.gg
Guernsey Museum and Art Gallery,"Candie Gardens, St Peter Port, Guernsey, Channel Islands, GY1 1UG",GY1 1UG,,,www.museums.gov.gg
Elizabeth Castle,"St Helier, Jersey, Channel Islands, JE2 3NU",JE2 3NU,,,www.jerseyheritage.org
Jersey Archive,"Clarence Road, St Helier, Jersey, JE2 4JY",JE2 4JY,,,www.jerseyheritage.org
Jersey Museum,"The Weighbridge, St Helier, Jersey, Channel Islands, JE2 3NF",JE2 3NF,,,www.jerseyheritage.org
Maritime Museum and Occupation Tapestry Gallery,"New North Quay, St Helier, Channel Islands, JE2 3ND",JE2 3ND,,,www.jerseyheritage.org
Hamptonne,"Rue de la Patente, St Lawrence, Jersey, JE3 1HS",JE3 1HS,,,www.jerseyheritage.org
Mont Orgueil Castle,"Gorey, St Martin, Jersey, Channel Islands, JE3 6ET",JE3 6ET,,,www.jerseyheritage.org
Ashby de la Zouch Museum,"North Street, Ashby de la Zouch, Leicestershire, LE65 1HU",LE65 1HU,52.7486285982411,-1.4703228986834,ashbymuseum.org.uk
Baysgarth House Museum,"Baysgarth Park, Caistor Road, Barton-on-Humber, North Lincolnshire, DN18 6AH",DN18 6AH,53.6801005514033,-0.437311785358522
Boston Guildhall,"South Street, Boston, Lincolnshire, PE21 6HT",PE21 6HT,52.975996694286,-0.0230701701164213,www.bostonguildhall.co.uk
Buxton Museum and Art Gallery,"Terrace Road, Buxton, Derbyshire, SK17 6DA",SK17 6DA,53.2569205348586,-1.91297621662806,www.derbyshire.gov.uk/leisure/buxton_museum/
Calverton Folk Museum,"Main Street, Calverton, Nottinghamshire, NG14 6FQ",NG14 6FQ,53.03585038648,-1.07953382391418
Hardwick Hall,"Doe Lea, nr Chesterfield, Derbyshire, S44 5QJ",S44 5QJ,53.1669806391003,-1.31002502677073,www.nationaltrust.org.uk
Snibston Discovery Museum,"Ashby Road
Coalville
Leicestershire, LE67 3LN",LE67 3LN,,,www.snibston.com
The 1620s House and Garden at Donington le Heath,"Manor Road, Donington-le-Heath, Coalville, Leicestershire, LE67 2FW",LE67 2FW,52.7100456959734,-1.37964166487602,www.doningtonleheath.org.uk
Corby Heritage Centre,"75-77 High Street, Old Village, Corby (Building Address)",No Valid Postcode Found,,,"Corby Borough Council
Culture and Leisure Department, 2nd Floor, Deene House,
New Post Office Square,
Corby,
Northamptonshire, NN17 1GD, NN17 1UU (Heritage Centre)  NN17 1GD (Delivery Post Code)"
Crich Tramway Village,"Crich, Matlock, Derbyshire, DE4 5DP",DE4 5DP,53.0895505063976,-1.48655981130976,www.tramway.co.uk
Sir Richard Arkwright’s Cromford Mill,"Mill Lane, Cromford, Derbyshire, DE4 3RQ",DE4 3RQ,53.1091637690458,-1.55559496528641,www.arkwrightsociety.org.uk
Vina Cooke Museum of Dolls and Bygone Childhood,"The Old Rectory, Cromwell, Newark, Nottinghamshire, NG23 6JE",NG23 6JE,53.1464140941752,-0.807383046049062,www.vinasdolls.co.uk
D.H. Lawrence Birthplace Museum,"8A Victoria Street, Eastwood, Nottingham, NG16 3AW",NG16 3AW,53.0184076426868,-1.30703014698899,www.liberty-leisure.org.uk/dhlawrence
Eyam Museum,"Hawkhill Road, Eyam, Hope Valley, Derbyshire, S32 5QP",S32 5QP,53.2877333939538,-1.67383851958074,www.eyam.org.uk
Flintham Museum,"Inholms Road, Flintham, Nottinghamshire, NG23 5LF",NG23 5LF,53.007531370173,-0.897477471937821,www.flintham-museum.org.uk
Gainsborough Old Hall,"Parnell Street, Gainsborough, Lincolnshire, DN21 2NB",DN21 2NB,53.4005798052993,-0.777381392984691,www.gainsborougholdhall.com
Fishing Heritage Centre,"Alexandra Dock, Grimsby, North East Lincolnshire, DN31 1UZ",DN31 1UZ,53.5690599023902,-0.0839508958020474,www.nelincs.gov.uk/leisure/museums
Hinckley & District Museum,"Framework Knitters’ Cottages, Lower Bond Street, Hinckley, Leicestershire, LE10 1QU",LE10 1QU,52.5433160461124,-1.37385432634425,www.hinckleydistrictmuseum.org.uk
Kettering Museum and Art Gallery,"Sheep Street, Kettering, Northamptonshire, NN16 0AN",NN16 0AN,52.3962866314375,-0.728118308958048,www.kettering.gov.uk/museums
Lincolnshire Road Transport Museum,"Whisby Road, North Hykeham, Lincoln, Lincolnshire, LN6 3QT",LN6 3QT,53.2022981946114,-0.596650091155435,www.lvvs.org.uk
Museum of Lincolnshire Life,"The Old Barracks, Burton Road, Lincoln, LN1 3LY",LN1 3LY,53.2379544959236,-0.544477893385304,www.lincolnshire.gov.uk/museumoflincolnshirelife
Royal Lincolnshire Regiment Museum,"Museum of Lincolnshire Life, Burton Road, Lincoln, LN1 3LY",LN1 3LY,53.2379544959236,-0.544477893385304
The Collection: Art and Archaeology in Lincolnshire,"Danes Terrace, Lincoln, LN2 1LP",LN2 1LP,53.2321463394917,-0.537798047733262,www.thecollectionmuseum.com
Charnwood Museum,"Queens Park, Granby Street, Loughborough, Leicestershire, LE11 3DU",LE11 3DU,52.770763425273,-1.20904907665995,www.charnwood.gov.uk/pages/heritage
Great Central Railway Museum,"Great Central Station, Great Central Road, Loughborough, Leicestershire, LE11 1RW",LE11 1RW,52.76820884577,-1.19811261231079,www.gcrailway.co.uk
Bosworth Battlefield Heritage Centre,"Ambion Lane
Sutton Cheney
Market Bosworth
Leicestershire, CV13 0AD",CV13 0AD,52.6023090062212,-1.40722497759605,www.bosworthbattlefield.org.uk
Caudwell’s Mill Trust Ltd,"Caudwell’s Mill, Rowsley, Matlock, Derbyshire, DE4 2EB",DE4 2EB,53.1886327653503,-1.61971088243807
New Mills Heritage & Information Centre,"Rock Mill Lane, New Mills, High Peak, Derbyshire, SK22 3BN",SK22 3BN,53.3653109069562,-2.0012232871655,www.newmillstowncouncil.org.uk
National Civil War Centre,"National Civil War Centre - Newark Museum,
14 Appleton Gate,
Newark,
Nottinghamshire, NG24 1JY",NG24 1JY,53.0766764483735,-0.805907275314999,www.nationalcivilwarcentre.com
Newark Air Museum,"Drove Lane, Winthorpe, Newark-on-Trent, NG24 2NY",NG24 2NY,53.0977162883852,-0.769256694853589,www.newarkairmuseum.org
Newark Town Hall Museum & Art Gallery,"Town Hall, Market Place, Newark, Nottinghamshire, NG24 1DU",NG24 1DU,53.0764803109506,-0.809659547327125,www.newarktownhallmuseum.co.uk
North Leverton Windmill,"Mill Lane, North Leverton, Nottinghamshire, DN22 0BA",DN22 0BA,53.3291988966797,-0.837879369821565,www.north-leverton-windmill.co.uk
Northampton Museum and Art Gallery,"Guildhall Road, Northampton, NN1 1DP",NN1 1DP,52.2362697283576,-0.894235959849965,www.northampton.gov.uk/museums
City of Caves,"Upper Level, Broadmarsh Shopping Centre, Nottingham, NG1 7LS",NG1 7LS,52.949409606962,-1.14731819287905,www.cityofcaves.org.uk
Galleries of Justice Museum,"Shire Hall, High Pavement, Lace Market, Nottingham, NG1 1HN",NG1 1HN,52.9506550242593,-1.14424251228655,www.galleriesofjustice.org.uk
Green’s Windmill and Science Centre,"Green's Windmill, Windmill Lane, Sneinton, Nottingham, NG2 4QB",NG2 4QB,52.952707218668,-1.13096961595999,http://www.greensmill.org.uk/
Museum of The Mercian Regiment (Worcestershire and Sherwood Foresters Collection),"The Castle, Nottingham, NG1 6EL",NG1 6EL,52.9496597530162,-1.15465085467834,www.wfrmuseum.org.uk
New Art Exchange,"39-41 Gregory Boulevard, Nottingham, NG7 6BE",NG7 6BE,52.9660165516766,-1.16808944814991,www.thenewartexchange.org.uk
Newstead Abbey Historic House and Gardens,"Newstead Abbey Park, Nottinghamshire, NG15 8NA",NG15 8NA,53.078456090709,-1.19292874398572,www.newsteadabbey.org.uk
Nottingham Industrial Museum,"Courtyard Stables, Wollaton Park, Nottingham, NG8 2AE",NG8 2AE,52.9477815361896,-1.21095952275776,www.nottinghamindustrialmuseum.org.uk
William Booth Birthplace Museum,"10-14 Notintone Place, Sneinton, Nottingham, NG2 4QG",NG2 4QG,52.9522002203905,-1.13170911256504,www.salvationarmy.org.uk/uki/wbbm
Papplewick Pumping Station,"Rigg Lane, Ravenshead, Nottingham, NG15 9AJ",NG15 9AJ,53.0630617296303,-1.129765605704,http://www.papplewickpumpingstation.org.uk
Midland Railway - Butterley,"Butterley Station, Ripley, Derbyshire, DE5 3QZ",DE5 3QZ,53.0599698477829,-1.40418790173164,www.midlandrailwaycentre.co.uk
Framework Knitters’ Museum,"Chapel Street, Ruddington, Nottinghamshire, NG11 6HE",NG11 6HE,52.8911681381648,-1.15134476460834,www.frameworkknittersmuseum.org.uk
Village Church Farm,"The Village Church Farm, Church Road South, Skegness, Lincolnshire PE25 2HF, PE25 2HF",PE25 2HF,53.1468719011045,0.325649540388543,www.churchfarmvillage.org.uk
National Centre for Craft & Design,"Navigation Wharf, Carre Street, Sleaford, Lincolnshire, NG34 7TW",NG34 7TW,52.9980850062861,-0.408090329160295,http://www.nationalcraftanddesign.org.uk/
Canal Museum,"Stoke Bruerne, Towcester, Northants, NN12 7SE",NN12 7SE,52.1424622569823,-0.914856119741111
Sulgrave Manor,"Manor Road, Sulgrave, Banbury, Oxon, OX17 2SD",OX17 2SD,52.1057734076058,-1.18269738579053,www.sulgravemanor.org.uk
Wellingborough Museum,"Dulley's Baths, 12 Castle Way, Wellingborough, Northamptonshire, NN8 1XB",NN8 1XB,52.2999113648681,-0.689129150519229,wellingboroughmuseum.co.uk
Wirksworth Heritage Centre,"31 St. Johns Street, Wirksworth, Derbyshire, DE4 4DS",DE4 4DS,53.0805088626074,-1.57343068401216,www.wirksworthheritagecentre.org
Wollaston Museum,"102 High Street, Wollaston, Northants, NN29 7RJ",NN29 7RJ,52.2576054120894,-0.671080970278567,www.wollastonmuseum.com
Beccles and District Museum,"Leman House, Ballygate, Beccles, Suffolk, NR34 9ND",NR34 9ND,52.4555012383545,1.55978196596191,www.becclesmuseum.org.uk/
John Bunyan Museum and Library,"Bunyan Meeting, Mill Street, Bedford, MK40 3EU",MK40 3EU,52.1368142554196,-0.465437355668325,www.bunyanmeeting.co.uk
Barleylands Craft Village and Farm Centre,"Barleylands Road, Billericay, Essex, CM11 2UD",CM11 2UD,51.6012099171596,0.445506533732301,www.barleylands.co.uk
Art Gallery,"Braintree Town Hall Centre, Market Square, Braintree, CM7 3YG",CM7 3YG,51.8779524256592,0.55335977142321,www.braintree.gov.uk/museum
Braintree District Museum,"Manor Street, Braintree, Essex, CM7 3HW",CM7 3HW,51.8783525158126,0.554399559858878,www.enjoybraintreedistrict.co.uk
Bungay Museum,"Council Offices, Bungay, Suffolk, NR35 1EE",NR35 1EE,52.4570221822686,1.43610962484653
Burnham on Crouch and District Museum,"Coronation Road, Burnham on Crouch, Essex, CM0 8AS",CM0 8AS,51.6252630951156,0.816672765446908,Www.Burnhammuseum.co.uk
Moyse’s Hall Museum,"Cornhill, Bury St Edmunds, Suffolk, IP33 1DX",IP33 1DX,52.2462975887364,0.712865764001156,www.moyseshall.org
West Stow Anglo-Saxon Centre,"The Visitor Centre, Icklingham Road, West Stow, Bury St Edmunds, Suffolk, IP28 6HG",IP28 6HG,52.3115462838921,0.638007145005019,www.stedmundsbury.gov.uk/weststow
Bushey Museum and Art Gallery,"Rudolph Road, Bushey, Hertfordshire, WD23 3HW",WD23 3HW,51.6455177106404,-0.3652679888469,www.busheymuseum.org
Cambridge Museum of Technology,"The Old Pumping Station, Cheddars Lane, Cambridge, CB5 8LD",CB5 8LD,52.2121703527766,0.145644541784601,www.museumoftechnology.com
Kettle’s Yard,"Castle Street, Cambridge, CB3 0AQ",CB3 0AQ,52.2112148150589,0.114903467468319,www.kettlesyard.co.uk
Museum of Cambridge,"2/3 Castle Street, Cambridge, CB3 0AQ",CB3 0AQ,52.2112148150589,0.114903467468319,www.museumofcambridge.org.uk
Sedgwick Museum of Earth Sciences,"University of Cambridge, Downing Street, Cambridge, CB2 3EQ",CB2 3EQ,52.2028864395752,0.121518035647268,www.sedgwickmuseum.org
The Polar Museum,"Scott Polar Research Institute, Lensfield Road, Cambridge, CB2 1ER",CB2 1ER,52.1983579429057,0.126321584407608,www.spri.cam.ac.uk/museum
University Museum of Archaeology and Anthropology,"Downing St, Cambridge, CB2 3DZ",CB2 3DZ,52.2028864395752,0.121518035647268,http://maa.cam.ac.uk
University of Cambridge Museum of Zoology,"Downing St, Cambridge, CB2 3EJ",CB2 3EJ,52.2028864395752,0.121518035647268,www.museum.zoo.cam.ac.uk
Whipple Museum of the History of Science,"Free School Lane, Cambridge, CB2 3RH",CB2 3RH,52.2036950412874,0.119053953976543,www.hps.cam.ac.uk/whipple
Chatteris Museum,"14 Church Lane, Chatteris, Cambridgeshire, PE16 6JA",PE16 6JA,52.4542195096383,0.0514379592234418,www.chatterismuseum.org.uk
Colchester Castle Museum,"Castle Park, Colchester, Essex, CO1 1TJ",CO1 1TJ,51.8907102308051,0.903162115477923,www.cimuseums.org.uk
Hollytrees Museum,"High Street, Colchester, Essex, CO1 1UG",CO1 1UG,51.8901353095472,0.905319827270536,www.cimuseums.org.uk
Natural History Museum,"All Saint’s Church, High Street, Colchester, Essex, CO1 1DN",CO1 1DN,51.8895044721801,0.902822740437215,www.cimuseums.org.uk
Mechanical Music Museum & Bygones,"Blacksmith’s Road, Cotton, Stowmarket, Suffolk, IP14 4QN",IP14 4QN,52.2673313619924,1.02433145635854,www.cottonmusic.co.uk
Cromer Museum,"East Cottages, Tucker Street, Cromer, Norfolk, NR27 9HB",NR27 9HB,52.9313853184364,1.30186842672326,www.norfolk.gov.uk
RNLI Henry Blogg Museum,"The Rocket House, The Gangway, Cromer, Norfolk, NR27 9ET",NR27 9ET,52.9305825380394,1.30292352147887,www.rnli.org/henryblogg
The Munnings Art Museum,"Castle House, Castle Hill, Dedham, Colchester, Essex, CO7 6AZ",CO7 6AZ,51.9499776301715,0.99607871127367
Bressingham Steam,"Bressingham, Diss, Norfolk, IP22 2AB",IP22 2AB,52.384625649285,1.05705353282647,www.bressingham.co.uk
IWM Duxford,"Cambridgeshire, CB22 4QR",CB22 4QR,52.0965263027513,0.136118831409854,www.iwm.org.uk/duxford
Bishop Bonner’s Cottage Museum,"St Withburga Lane, East Dereham, Norfolk, NR19 1ED",NR19 1ED,52.6803626899892,0.938558257480957,www.derehamhistory.com
Moot Hall,"Church End, Elstow, Bedford, MK42 9XT",MK42 9XT,52.1146281069418,-0.469923487846433,www.bedford.gov.uk/moothall
Ely Museum,"The Old Gaol, Market Street, Ely, Cambridgeshire, CB7 4LS",CB7 4LS,52.4002847477248,0.264366489600689,www.elymuseum.org.uk
Stained Glass Museum,"South Triforium, Ely Cathedral, Ely, Cambridgeshire, CB7 4DL",CB7 4DL,52.3979014449088,0.263921053448695,www.stainedglassmuseum.com
North Weald Airfield Museum and Memorial,"Ad Astra House, Hurricane Way, North Weald, Epping, Essex, CM16 6AA",CM16 6AA,51.7135495257324,0.154966650832151,www.northweald.org
Fakenham Museum of Gas and Local History,"Hempton Road, Fakenham, Norfolk, NR21 7LA",NR21 7LA,52.8265709870145,0.846531923906646,www.fakenhamgasmuseum.com
Thursford Collection,"Thursford, Norfolk, NR21 OAS",No Valid Postcode Found,,,www.thursford.com
Norfolk & Suffolk Aviation Museum: East Anglia’s Aviation Heritage Centre,"Buckeroo Way, The Street, Flixton, Near Bungay, Suffolk, NR35 1NZ",NR35 1NZ,52.4353101055412,1.40130792836972,www.aviationmuseum.net
Elizabethan House Museum,"4 South Quay, Great Yarmouth, NR30 2QH",NR30 2QH,52.6053210576676,1.72540314617099,www.museums.norfolk.gov.uk
Time and Tide: Museum of Great Yarmouth Life,"Blackfriars Road, Great Yarmouth, Norfolk, NR30 3BX",NR30 3BX,52.6021396853512,1.73130808236677,www.museums.norfolk.gov.uk
Tolhouse Gaol,"Tolhouse Street, Great Yarmouth, Norfolk, NR30 2SH",NR30 2SH,52.6043042469603,1.72741465852766,www.museums.norfolk.gov.uk
Gressenhall Farm and Workhouse: Museum of Norfolk Life,"Gressenhall, Dereham, Norfolk, NR20 4DR",NR20 4DR,52.7148660155379,0.921908671841092,www.museums.norfolk.gov.uk/Gressenhall
Halesworth and District Museum,"The Railway Station, Station Road, Halesworth, Suffolk, IP19 8BZ",IP19 8BZ,52.3462307075335,1.50496029146672,www.halesworthmuseum.org.uk
Harlow Museum,"Muskham Road, Off First Avenue, Harlow, Essex, CM20 2LF",CM20 2LF,51.7787186850546,0.123843041623381,www.tmoh.com
Harwich Lifeboat Museum,"Timberfields, off Wellington Road, Harwich, CO12 3DT",CO12 3DT,51.9456196783922,1.28946781153533,http://www.harwich-society.co.uk/
Harwich Maritime Museum,"Low Lighthouse, Harbour Crescent, Harwich, CO12 3NL",CO12 3NL,51.9420306325603,1.29012186547226
Harwich Redoubt Fort,"behind 29 Main Road, Harwich, CO12 3LT",CO12 3LT,51.9424497370972,1.28767851406384,http://www.harwich-society.co.uk/
National Vintage Wireless and Television Museum,"Lightvessel LV18, The Quay, Harwich, Essex, CO12 3HH",CO12 3HH,51.947896706218,1.28651980136059,www.lv18.org
Mill Green Museum and Mill,"Mill Green, Hatfield, Hertfordshire, AL9 5PD",AL9 5PD,51.7729602734228,-0.20496826286809,www.welhat.gov.uk/museum
Welwyn Hatfield Museum Service,"Mill Green Museum and Mill, Mill Green, Hatfield, Hertfordshire, AL9 5PD",AL9 5PD,51.7729602734228,-0.20496826286809,www.welhat.gov.uk/museum
British Schools Museum,"41 Queen Street, Hitchin, Hertfordshire, SG4 9TS",SG4 9TS,51.9462223134144,-0.275684713424881
North Hertfordshire Museum,"North Hertfordshire Museum, Brand Street, Hitchin, Herts., SG5 1JE",SG5 1JE,51.9491869954724,-0.279194250331937,www.north-herts.gov.uk
Lowewood Museum,"High Street, Hoddesdon, Hertfordshire, EN11 8BH",EN11 8BH,51.7552004865693,-0.0137941225836297,www.broxbourne.gov.uk/lowewoodmuseum
Ramsey Rural Museum,"Wood Lane, Ramsey, Huntingdon, Cambridgeshire, PE26 2XD",PE26 2XD,52.4511642073264,-0.097637336135629,www.ramseyruralmuseum.co.uk
Feering and Kelvedon Local History Museum,"Aylett’s School, Maldon Road, Kelvedon, Colchester, Essex, CO5 9BA",CO5 9BA,51.8324703519701,0.697697609319136,www.kelvedon.org.uk
Lynn Museum,"Market Street, King’s Lynn, Norfolk, PE30 1NL",PE30 1NL,52.7536607405015,0.399905125580932,www.museums.norfolk.gov.uk also www.visitwestnorfolk.com
True’s Yard Fisherfolk Museum,"True’s Yard, North Street, King’s Lynn, Norfolk, PE30 1QW",PE30 1QW,52.7583803192159,0.397289322261155,www.truesyard.co.uk
Leighton Buzzard Railway,"Page’s Park Station, Billington Road, Leighton Buzzard, Bedfordshire, LU7 4TN",LU7 4TN,51.9067333969599,-0.652009023515754,www.buzzrail.co.uk
Long Shop Museum,"Main Street, Leiston, Suffolk, IP16 4ES",IP16 4ES,52.207705802574,1.5759527868664,www.longshopmuseum.co.uk
The International Garden Cities Exhibition,"296 Norton Way South, Letchworth Garden City, Hertfordshire, SG6 1SU",SG6 1SU,51.9768919739773,-0.224187217202038,www.garden-cities-exhibition.com
The Scout Association Heritage Service,"The Scout Association
UK Headquarters
Gilwell Park
Chingford, E4 7QW",E4 7QW,51.6502044723068,0.00266022507746261,www.scouts.org.uk/heritage
de Havilland Aircraft Museum,"PO Box 107, Salisbury Hall, London Colney, Nr St Albans, Hertfordshire, AL2 1EX",AL2 1EX,,,www.dehavillandmuseum.co.uk
Lowestoft and East Suffolk Maritime Museum,"Sparrow’s Nest Gardens, Whapload Road, Lowestoft, Suffolk, NR32 1XG",NR32 1XG,52.4878467561162,1.75756893146854,lowestoftmaritimemuseum.org.uk
Lowestoft Museum,"Broad House, Nicholas Everitt Park, Oulton Broad, Lowestoft, Suffolk, NR33 9JR",NR33 9JR,52.4736197976015,1.70678885210293
Maldon District Museum,"47 Mill Road, Maldon, Essex, CM9 5HX",CM9 5HX,51.7284079775314,0.685933634289246,www.maldonmuseum.org.uk
Much Hadham Forge Museum,"The Forge, High Street, Much Hadham, Hertfordshire, SG10 6BS",SG10 6BS,51.853238879503,0.0714155785476427,www.hertsmuseums.org.uk
Royal Air Force Air Defence Radar Museum,"RRH Neatishead, Norwich, NR12 8YB",NR12 8YB,52.713626404174,1.47234195001023,www.radarmuseum.co.uk
National Heritage Centre for Horseracing & Sporting Art,"Palace House, Palace Street, CB8 8JH",CB8 8JH,52.2427469393116,0.40428560653746
Museum of Norwich at the Bridewell,"The Museum of Norwich at the Bridewell, Bridewell Alley, Norwich, Norfolk, NR2 1AQ",NR2 1AQ,52.6301141800636,1.29501201801354,www.museums.norfolk.gov.uk
Norwich Castle Museum and Art Gallery,"Norwich Castle Museum and Art Galleries, Castle Mound, Norwich NR1 3JU
Postal address:  NMS, Shirehall, Market Avenue, Norwich NR1 3JQ, NR1 3JU :  Castle SAT NAV NR1 3JU",NR1 3JU,52.6286387761944,1.2963200016082,www.museums.norfolk.gov.uk
Royal Norfolk Regimental Museum,"Shirehall, Market Avenue, Norwich, Norfolk, NR1 3JQ",NR1 3JQ,52.6287536140331,1.29736326808852,www.museums.norfolk.gov.uk
Sainsbury Centre for Visual Arts,"University of East Anglia, Norwich, Norfolk, NR4 7TJ",NR4 7TJ,52.6223674287531,1.24139091832127,www.scva.ac.uk
Strangers’ Hall,"Charing Cross, Norwich, Norfolk, NR2 4AL",NR2 4AL,52.6305393150947,1.29233906128833,www.museums.norfolk.gov.uk
Peterborough Museum and Art Gallery,"Priestgate, Peterborough, PE1 1LF",PE1 1LF,52.5717975329089,-0.246613708436596,www.vivacity-peterborough.com
Railworld - Transport Centre & Wildlife Haven,"Oundle Road, Peterborough, Cambridgeshire, PE2 9NR",PE2 9NR,52.5678240789569,-0.247864091931398,www.railworld.net
Potters Bar Museum,"Wyllyotts Place, Darkes Lane, Potters Bar, Hertfordshire, EN6 2HN",EN6 2HN,51.6966862776816,-0.194226853340692
Prickwillow Drainage Engine Museum,"Main Street, Prickwillow, Ely, Cambridgeshire, CB7 4UN",CB7 4UN,52.4166123836523,0.344233182461055,www.prickwillow-engine-museum.co.uk
Fry Art Gallery,"Bridge End Gardens, Castle Street, Saffron Walden, Essex, CB10 1BD",CB10 1BD,52.0252494621059,0.238562968921515,www.fryartgallery.org
Saffron Walden Museum,"Museum Street, Saffron Walden, Essex, CB10 1JL",CB10 1JL,52.0247588895639,0.240243957395958,www.saffronwaldenmuseum.org
Clock Tower,"Market Place, St Albans, Hertfordshire",No Valid Postcode Found,,,www.stalbansmuseums.org.uk
Verulamium Museum,"St Michaels, St Albans, Hertfordshire, AL3 4SW",AL3 4SW,51.7531206642274,-0.354648845478072,www.stalbansmuseums.org.uk
Sheringham Museum,"Sheringham Museum
The Mo
Lifeboat Plain
Sheringham
Norfolk, NR26 8BG",NR26 8BG,52.9447576140823,1.21306827921018,www.sheringhammuseum.co.uk
Southend Museums Service,"c/o Central Museum, Victoria Avenue, Southend-on-Sea, Essex, SS2 6EW",SS2 6EW,51.5427090134224,0.710591252222886,www.southendmuseums.co.uk
Spalding Gentlemen’s Society,"Museum, Broad Street, Spalding, Lincolnshire, PE11 1TB",PE11 1TB,52.7875800206531,-0.15038116313592,www.spalding-gentlemens-society.org
Museum of the Broads,"The Staithe, Stalham, Norwich, Norfolk, NR12 9DA",NR12 9DA,52.7679208330377,1.51542616744742,www.museumofthebroads.org.uk
Museum of East Anglian Life,"Stowmarket, Suffolk, IP14 1DL",IP14 1DL,52.1872027574522,0.994612706842856,www.eastanglianlife.org.uk
Gainsborough’s House,"46 Gainsborough Street, Sudbury, Suffolk, CO10 2EU",CO10 2EU,52.0381670011851,0.727554003671027,www.gainsborough.org
"Ancient House, Museum of Thetford Life","White Hart Street, Thetford, Norfolk, IP24 1AA",IP24 1AA,52.4150085608258,0.746802742660382,www.museums.norfolk.gov.uk
Farmland Museum and Denny Abbey,"Ely Road, Waterbeach, Cambridgeshire, CB25 9PQ",CB25 9PQ,52.2957164780319,0.182297023370702,www.farmlandmuseum.org.uk
Welwyn Roman Baths,"Welwyn Bypass, Welwyn, Hertfordshire, AL6 9HT",AL6 9HT,51.8231411754393,-0.214176495336975
Whittlesey Museum,"Town Hall, Market Street, Whittlesey, Peterborough, PE7 1BD",PE7 1BD,52.5565819882808,-0.128971268130387
Witham Information Centre,"Newland Street, Witham, Essex, CM8 2FE",CM8 2FE,51.799017242722,0.639391342791371,http://www.witham.gov.uk/site/visit-witham/information-centre/
Woolpit & District Museum,"The Institute, Woolpit, Suffolk",No Valid Postcode Found,,
Wymondham Heritage Museum,"10 The Bridewell, Norwich Road, Wymondham, Norfolk, NR18 0NS",NR18 0NS,52.5709263811717,1.11716238960682,www.wymondhamheritagemuseum.co.uk
Rushen Abbey,"Ballasalla, Isle of Man",No Valid Postcode Found,,,www.manxnationalheritage.im
Castle Rushen,"Castletown, Isle of Man",No Valid Postcode Found,,,www.manxnationalheritage.im
Nautical Museum,"Castletown, Isle of Man",No Valid Postcode Found,,,www.manxnationalheritage.im
Old Grammar School,"Castletown, Isle of Man",No Valid Postcode Found,,,www.manxnationalheritage.im
Old House of Keys,"Castletown, Isle of Man",No Valid Postcode Found,,,www.manxnationalheritage.im
Cregneash,Isle of Man,No Valid Postcode Found,,,www.manxnationalheritage.im
The Sound,"The Sound Visitor Centre, Cregneash, Isle of Man",No Valid Postcode Found,,,www.manxnationalheritage.im
Manx Museum,"Manx National Heritage, Manx Museum, Douglas, Isle of Man, IM1 3LY",IM1 3LY,,,www.manxnationalheritage.im
Manx National Heritage,"Douglas, Isle of Man, IM1 3LY",IM1 3LY,,,www.manxnationalheritage.im
Great Laxey Wheel & Mines Trail,"Laxey, Isle of Man",No Valid Postcode Found,,,www.manxnationalheritage.im
Niarbyl Cafe and Visitor Centre,"Niarbyl, Isle of Man",No Valid Postcode Found,,,www.manxnationalheritage.im
House of Manannan,"Peel, Isle of Man",No Valid Postcode Found,,,www.manxnationalheritage.im
Peel Castle,"Peel, Isle of Man",No Valid Postcode Found,,,www.manxnationalheritage.im
The Grove Museum of Victorian Life,"Andreas Road, Ramsey, Isle of Man",No Valid Postcode Found,,,www.manxnationalheritage.im
"Banqueting House, Whitehall","Whitehall, London, SW1A  2ER",SW1A  2ER,51.5045372186958,-0.125954062845128,www.hrp.org.uk
Barbican Art Gallery,"Level 3, Barbican Centre, Silk Street, London, EC2Y 8DS",EC2Y 8DS,51.5199591152333,-0.094128689259807,www.barbican.org.uk
Barnet Museum and Local History Society,"31 Wood Street, Barnet, Hertfordshire, EN5 4BE",EN5 4BE,51.6528141415211,-0.202490759911014,www.barnetmuseum.co.uk
"Ben Uri Gallery, The Art Museum for Everyone, The London Jewish Museum of Art","108A Boundary Road, off Abbey Rd, St John’s Wood, London, NW8 0RH",NW8 0RH,51.5374240297467,-0.185512104196575,www.benuri.org.uk
Benjamin Franklin House,"36 Craven Street, London, WC2N 5NF",WC2N 5NF,51.5076694213912,-0.125004155646793,www.benjaminfranklinhouse.org
Bentley Priory Museum,"Mansion House Drive
Stanmore, HA7 3FB",HA7 3FB,51.6265289627568,-0.333472462108942,www.bentleypriory.org
Black Cultural Archives,"1 Windrush Square, London, SW2 1EF",SW2 1EF,51.4605164041184,-0.114600417385236,www.bcaheritage.org.uk
British Library,"96 Euston Road
London, NW1 2DB",NW1 2DB,51.5299849919292,-0.127014154365522,www.bl.uk
British Museum,"Great Russell Street, London, WC1B 3DG",WC1B 3DG,51.5193625945085,-0.126873428935332,www.britishmuseum.org
British Optical Association Museum,"The College of Optometrists, 42 Craven Street, London, WC2N 5NG",WC2N 5NG,51.5078081349116,-0.125243436871508,www.college-optometrists.org/museum
British Red Cross Museum and Archives,"UK Office
44 Moorfields, London, EC2Y 9AL",EC2Y 9AL,51.5190780578221,-0.088616092475528,www.redcross.org.uk/museumandarchives
Bruce Castle Museum,"Bruce Castle Museum, Lordship Lane, London, N17 8NU",N17 8NU,51.599148220324,-0.0754660470640205,www.haringey.gov.uk/leisure/brucecastlemuseum
Brunel Museum,"Brunel Engine House, Railway Avenue, Rotherhithe, London, SE16 4LF",SE16 4LF,51.5015945037345,-0.05296629271237,www.brunel-museum.org.uk
Cartoon Museum,"35 Little Russell Street, London, WC1A 2HH",WC1A 2HH,51.5176858024865,-0.126048589157515,www.cartoonmuseum.org
Charles Dickens Museum,"48 Doughty Street
London, WC1N 2LX",WC1N 2LX,51.5235989873807,-0.11626288112019,www.dickensmuseum.com
Churchill War Rooms,"Clive Steps, King Charles Street, London, SW1A 2AQ",SW1A 2AQ,51.5021645004295,-0.126598929666165,iwm.org.uk
Cinema Museum,"The Master’s House, The Old Lambeth Workhouse, 2 Dugard Way, Kennington, London, SE11 4TH",SE11 4TH,51.4923147216026,-0.105149651474973,www.cinemamuseum.org.uk
Clipper Ship Cutty Sark,"King William Walk, Greenwich, London, SE10 9HT",SE10 9HT,51.4835288411784,-0.00961992630030485,www.rmg.co.uk/cuttysark
Crossness Engines,"The Old Works, Crossness STW, Belvedere Road, Abbey Wood, London, SE2 9AQ",SE2 9AQ,51.5058052408918,0.133981698038072,www.crossness.org.uk
Dr Johnson’s House,"17 Gough Square, London, EC4A 3DE",EC4A 3DE,51.5151535056248,-0.107790762389984,www.drjohnsonshouse.org
Dulwich Picture Gallery,"Gallery Road, Dulwich Village, London, SE21 7AD",SE21 7AD,51.4456319266479,-0.0867485678574604,www.dulwichpicturegallery.org.uk
Enfield Museum,"Enfield Museum, The Dugdale Centre, Thomas Hardy House, 39 London Road, Enfield, EN2 6DS",EN2 6DS,51.6498346494478,-0.0807211753706139,www.enfield.gov.uk/museum
Estorick Collection of Modern Italian Art,"39A Canonbury Square, Islington, London, N1 2AN",N1 2AN,51.543991150288,-0.099917373786857,www.estorickcollection.com
Fashion and Textile Museum,"83 Bermondsey Street
London, SE1 3XF",SE1 3XF,51.5015672921276,-0.0818708768632518,www.ftmlondon.org
Florence Nightingale Museum,"St. Thomas Hospital, 2 Lambeth Palace Road, London, SE1 7EW",SE1 7EW,,,www.florence-nightingale.co.uk
Freud Museum London,"20 Maresfield Gardens, Hampstead, London, NW3 5SX",NW3 5SX,51.5488362079473,-0.177442633858688,www.freud.org.uk
Fusilier Museum London,"HM Tower of London, London, EC3N 4AB",EC3N 4AB,51.5082739696387,-0.0762717071822635,www.fusiliermuseumlondon.org
Geffrye Museum of the Home,"136 Kingsland Road, London, E2 8EA",E2 8EA,51.5315557241367,-0.0762707837269107,www.geffrye-museum.org.uk
Guards Museum,"Wellington Barracks, Birdcage Walk, London, SW1E 6HQ",SW1E 6HQ,51.4999582556704,-0.137697006201696,www.theguardsmuseum.com
Guildhall Art Gallery,"Guildhall Art Gallery
Cultural and Visitor Development
Town Clerk’s Department
Guildhall Yard, London, EC2V 5AE",EC2V 5AE,51.5152742409513,-0.0919317303709912,www.guildhallartgallery.cityoflondon.gov.uk
Hayward Gallery,"Belvedere Road, London, SE1 8XZ",SE1 8XZ,51.5061317484959,-0.115470334127507
Headstone Manor & Museum (Harrow),"Headstone Manor & Museum, Pinner View, Harrow, HA2 6PX",HA2 6PX,51.5941937391857,-0.355186020516193,www.harrow.gov.uk/museum
HM Tower of London,"Tower Hill, London, EC3N 4AB",EC3N 4AB,51.5082739696387,-0.0762717071822635,www.hrp.org.uk/toweroflondon
HMS Belfast,"The Queen's Walk, SE1 2JH",SE1 2JH,51.5065878706596,-0.0814871139301132,iwm.org.uk
Hogarth’s House,"Hogarth Lane, Great West Road, London, W4 2QN",W4 2QN,51.4870989377818,-0.258837443961553,www.hounslow.info/hogarthshouse
Honeywood Museum,"Honeywood Walk, Carshalton, Surrey, SM5 3NX",SM5 3NX,51.3654599511682,-0.165324472737094,www.friendsofhoneywood.co.uk
Horniman Museum and Gardens,"100 London Road, Forest Hill, London, SE23 3PQ",SE23 3PQ,51.4411311677389,-0.0607622899510287,www.horniman.ac.uk
House Mill,"Three Mill Lane, Bromley-by-Bow, London, E3 3DU",E3 3DU,51.5268461431328,-0.00641942508088578
House of Illustration,"2 Granary Square
King's Cross
London, N1C 4BH",N1C 4BH,51.5364371679289,-0.124485447552322,www.houseofillustration.org.uk
Hunterian Museum at the Royal College of Surgeons,"35-43 Lincoln’s Inn Fields, London, WC2A 3PE",WC2A 3PE,51.5152840596417,-0.115899721135179,https://www.rcseng.ac.uk/museums-and-archives/hunterian-museum/
IWM London,"Lambeth Road, London, SE1 6HZ",SE1 6HZ,51.4960084387859,-0.108353223955037,www.iwm.org.uk
Keats House,"10 Keats Grove, Hampstead, London, NW3 2RR",NW3 2RR,51.5554820482476,-0.168233285276233,www.cityoflondon.gov.uk/keats
"Kensington Palace, State Apartments and Royal Ceremonial Dress Collection","London, W8 4PX",W8 4PX,51.5051983199959,-0.188046147935283,www.hrp.org.ukwww.kensingtonpalace@hrp.org.uk
Kingston Museum and Heritage Service,"Kingston Museum, Wheatfield Way, Kingston upon Thames, Surrey, KT1 2PS",KT1 2PS,51.4094095986004,-0.300254298038106,www.kingston.gov.uk/museum
Leighton House Museum,"12 Holland Park Road, London, W14 8LZ",W14 8LZ,51.4984318381861,-0.203557393679685,http://www.rbkc.gov.uk/subsites/museums.aspx
Little Holland House,"40 Beeches Avenue, Carshalton, Surrey, SM5 3LW",SM5 3LW,51.3550928537658,-0.1705931195671,www.sutton.gov.uk
London Canal Museum,"12/13 New Wharf Road, King’s Cross, London, N1 9RT",N1 9RT,51.5342213321079,-0.120323012721173,www.canalmuseum.org.uk
London Museum of Water and Steam,"Green Dragon Lane, Brentford, Middlesex, TW8 0EN",TW8 0EN,51.4895258454231,-0.289930333194309,www.waterandsteam.org.uk/
Mall Galleries,"17 Carlton House Terrace, London, SW1Y 5BD",SW1Y 5BD,51.506708825979,-0.130173549211178,www.mallgalleries.org.uk
MCC Museum,"Lord’s Ground, London, NW8 8QN",NW8 8QN,51.5285443247546,-0.173077458773047,www.lords.org
"Michael Faraday Museum, Royal Institution","The Royal Institution, 21 Albemarle Street, London, W1S 4BS",W1S 4BS,51.5099454325854,-0.142578606278418,www.rigb.org
Museum of Croydon,"Croydon Clocktower, Katharine Street, Croydon, CR9 1ET",CR9 1ET,51.3719109958111,-0.099535988334742,www.museumofcroydon.com
Museum of London,"London Wall, London, EC2Y 5HN",EC2Y 5HN,51.5177968330053,-0.0960927184295759,www.museumoflondon.org.uk
Museum of London Docklands,"No 1 Warehouse, West India Quay, Hertsmere Road, London, E14 4AL",E14 4AL,51.5076182779614,-0.0238597707666329,www.museumoflondon.org.uk/docklands
Museum of the Order of St John,"St John’s Gate, St John’s Lane, Clerkenwell, London, EC1M 4DA",EC1M 4DA,51.5219209406858,-0.1025371313769,www.museumstjohn.org.uk
Museum of the Royal Philatelic Society London,"Royal Philatelic Society London, 41 Devonshire Place, Marylebone, London, W1G 6JY",W1G 6JY,51.5214759419552,-0.150109602069122,www.rpsl.org.uk
Museum of Wimbledon,"22 Ridgway, Wimbledon, London, SW19 4QN",SW19 4QN,51.4236101330115,-0.216245094654995,www.wimbledonmuseum.org.uk
Museum of Writing,"c/o Institute of English Studies, Senate House, University of London, Malet Street, London, WC1E 7HU",WC1E 7HU,51.5206420888104,-0.12872363001111,www.museumofwriting.co.uk
National Army Museum,"Royal Hospital Road, Chelsea, London, SW3 4HT",SW3 4HT,51.4862248107244,-0.160365978481176,www.nam.ac.uk
National Gallery,"Trafalgar Square, London, WC2N 5DN",WC2N 5DN,51.5090970805918,-0.127683585920525,www.nationalgallery.org.uk
National Portrait Gallery,"St Martin’s Place, London, WC2H 0HE",WC2H 0HE,51.5093975264414,-0.128478275776761,www.npg.org.uk
Natural History Museum,"Cromwell Road, London, SW7 5BD",SW7 5BD,51.4965635207499,-0.176892049508933,www.nhm.ac.uk
"Old Operating Theatre, Museum and Herb Garret","9A St Thomas’ Street, London, SE1 9RY",SE1 9RY,51.5049987904426,-0.0882542955622595,www.oldoperatingtheatre.com
Orleans House Gallery,"Riverside, Twickenham, Middlesex, TW1 3DJ",TW1 3DJ,51.4469953458397,-0.320027976712877,www.richmond.gov.uk/arts
Royal Academy of Arts,"Burlington House, Piccadilly, London, W1J 0BD",W1J 0BD,51.5090979042958,-0.13960123407556,www.royalacademy.org.uk
Royal Air Force Museum,"Grahame Park Way, Hendon, London, NW9 5LL",NW9 5LL,51.5989431785544,-0.238189374618645,www.rafmuseum.org
Royal Artillery Museum - Firepower,"Royal Arsenal, Woolwich, London, SE18 6ST",SE18 6ST,51.495022394889,0.0703043762018219,www.firepower.org.uk
Royal College of Physicians Museum,"Library, Archive and Museum Services, 11 St Andrews Place, Regent’s Park, London, NW1 4LE",NW1 4LE,51.525747700602,-0.145006211159075,www.rcplondon.ac.uk/museum-and-garden
Royal London Hospital Museum,"Church of St Augustine with St Philip, Newark Street, London, E1 2AA",E1 2AA,51.5169045305158,-0.0602984422117218
Royal Museums Greenwich,"Park Row, Greenwich, London, SE10 9NF",SE10 9NF,51.4809364326942,-0.00523934925009468,www.rmg.co.uk
Science Museum,"Exhibition Road, London, SW7 2DD",SW7 2DD,51.4972950746358,-0.176517093026361,www.sciencemuseum.org.uk
Tate Britain,"Millbank, London, SW1P 4RG",SW1P 4RG,51.4908705682684,-0.127205997512015,www.tate.org.uk/britain
Tate Modern,"Bankside, London, SE1 9TG",SE1 9TG,51.5076169362616,-0.0993991858152309,www.tate.org.uk/modern
The Courtauld Gallery,"Somerset House, Strand, London, WC2R 0RN",WC2R 0RN,51.5107325245149,-0.116937778340811,www.courtauld.ac.uk/gallery
The Design Museum,"224-238 Kensington High Street, London, W8 6AG",W8 6AG,51.4980410045219,-0.198011608991471,www.designmuseum.org
The Fan Museum,"12 Crooms Hill, Greenwich, London, SE10 8ER",SE10 8ER,51.4787123253306,-0.00771262497658812,www.thefanmuseum.org.uk
The Foundling Museum,"40 Brunswick Square, London, WC1N 1AZ",WC1N 1AZ,51.5252684218018,-0.121672014997781,www.foundlingmuseum.org.uk
The Stephens Collection,"Avenue House, East End Road, Finchley, London, N3 3QE",N3 3QE,51.5970372414181,-0.197359079382393,www.london-northwest.com/sites/stephens
Trades Union Congress (TUC) Library Collections,"Special Collections, London Metropolitan University, Wash Houses, Old Castle Street, London E1 7NT, E1 7NT",E1 7NT,51.5153526370718,-0.0736241853313336,www.londonmet.ac.uk/tuc
UCL Geology and Teaching & Research Collections,"Rock Room, Room 4, First Floor, South Wing, University College London, Gower Street, London, WC1E 6BT",WC1E 6BT,51.5235696741004,-0.132423673862026,www.ucl.ac.uk/museums/geology
Victoria and Albert Museum,"Cromwell Road, South Kensington, London, SW7 2RL",SW7 2RL,51.4969404706804,-0.172223603255465,www.vam.ac.uk
Wallace Collection,"Hertford House, Manchester Square, London, W1U 3BN",W1U 3BN,51.5176927631165,-0.153131163579557,www.wallacecollection.org
Wandle Industrial Museum,"The Vestry Hall Annexe, London Road, Mitcham, Surrey, CR4 3UD",CR4 3UD,51.4021221379225,-0.168142056934055,www.wandle.org
"Wesley’s Chapel, Museum of Methodism and John Wesley’s House","49 City Road, London, EC1Y 1AU",EC1Y 1AU,51.5238372261558,-0.0870905834410745,www.wesleychapel.org.uk
Whitehall,"1 Malden Road, Cheam, Surrey, SM3 8QD",SM3 8QD,51.3597181274935,-0.217449870809188,www.friendsofwhitehallcheam.co.uk
Wimbledon Lawn Tennis Museum,"The All England Lawn Tennis Club, Church Road, Wimbledon, London, SW19 5AG",SW19 5AG,51.4361939892174,-0.215280155260238,www.wimbledon.com/museum
World Rugby Museum,"Twickenham Stadium, Rugby Road, Twickenham, Middlesex, TW1 1DZ",TW1 1DZ,,,www.rfu.com/museum
RNLI Grace Darling Museum,"Radcliffe Road, Bamburgh, Northumberland, NE69 7AE",NE69 7AE,55.606703971834,-1.72209107366586,www.rnli.org.uk/gracedarling
The Bowes Museum,"Barnard Castle, County Durham, DL12 8NP",DL12 8NP,54.5420617390211,-1.91551201039906,www.thebowesmuseum.org.uk
"Beamish, The Living Museum of the North","Beamish Museum
Beamish
County Durham, DH9 0RG",DH9 0RG,54.8818074696901,-1.65846966871654,www.beamish.org.uk
Billingham Museum Resource,"Queensway, Billingham, Tees Valley, TS23 2LN",TS23 2LN,54.606724274192,-1.29093957472085,www.stockton.gov.uk/museums
Binchester Roman Fort,"Bishop Auckland, County Durham",No Valid Postcode Found,,,www.durham.gov.uk
Wallington,"Wallington, Cambo, Morpeth, Northumberland, NE61 4AR",NE61 4AR,55.1531125101496,-1.95623712567249,www.nationaltrust.org.uk/wallington
Heatherslaw Cornmill,"Ford and Etal Estates, Cornhill on Tweed, Northumberland, TD12 4TJ",TD12 4TJ,55.6362081063437,-2.10903701841669,www.ford-and-etal.co.uk/heatherslaw-mill
Head of Steam - Darlington Railway Museum,"North Road Station, Darlington, County Durham, DL3 6ST",DL3 6ST,54.5358711597418,-1.55480341446441,www.head-of-steam.org.uk
DLI - Durham Light Infantry Museum and Durham Art Gallery,"Aykley Heads, Durham, DH1 5TU",DH1 5TU,54.7843855940191,-1.58112527716561,www.dlidurham.org.uk
Durham Museum and Heritage Centre,"St Mary-le-Bow, North Bailey, Durham, County Durham, DH1 3ET",DH1 3ET,54.7744694691302,-1.57482300103722,www.durhamheritagecentre.org.uk
"Museum of Archaeology, Durham University","Palace Green Library, Palace Green, Durham, DH1 3RN, DH1 3RN",DH1 3RN,54.7746192282236,-1.57653142022165,www.dur.ac.uk/archaeology.museum
"Oriental Museum, Durham University","Elvet Hill, Durham, DH1 3TH",DH1 3TH,54.764257197005,-1.58156615855289,www.dur.ac.uk/oriental.museum
Lady Waterford Hall & Gallery,"Ford Village, Berwick-on-Tweed, Northumberland, TD15 2QA",TD15 2QA,55.6320230812704,-2.08348572242026,www.ford-and-etal.co.uk/lady-waterford-hall
Shipley Art Gallery,"Prince Consort Road, Gateshead, Tyne and Wear, NE8 4JB",NE8 4JB,54.9505192819806,-1.60024411908301,www.shipleyartgallery.org.uk
Hartlepool Art Gallery,"Church Square, Hartlepool, TS24 7EQ",TS24 7EQ,54.686246130035,-1.20907908612232,www.destinationhartlepool.com
Museum of Hartlepool,"Jackson Dock, Maritime Avenue, Hartlepool, TS24 0XZ",TS24 0XZ,54.6901571353891,-1.20796365933692,www.destinationhartlepool.com
Hexham Old Gaol,"The Old Gaol, Hallgate, Hexham, Northumberland, NE46 3NH",NE46 3NH,54.9726268884602,-2.10372841944084,http://www.hexhamoldgaol.org.uk/
Moothall,"Hexham Market Place, Hexham, Northumberland, NE46 1XD",NE46 1XD,54.9710936104039,-2.09970985997979
Jarrow Hall,"Church Bank, Jarrow, Tyne and Wear, NE32 3DY",NE32 3DY,54.9823722387782,-1.47414223281493,www.jarrowhall.org.uk
Captain Cook Birthplace Museum,"Stewart Park, Middlesbrough, TS7 8AT",TS7 8AT,54.5382670984438,-1.20240614814976,www.captcook-ne.co.uk
Dorman Museum,"Linthorpe Road, Middlesbrough, TS5 6LA",TS5 6LA,54.5642177335993,-1.24088846065165,www.dormanmuseum.co.uk
Middlesbrough Museums,"Dorman Museum, Linthorpe Road, Middlesbrough, TS5 6LA",TS5 6LA,54.5642177335993,-1.24088846065165,www.dormanmuseum.co.uk
mima Middlesbrough Institute of Modern Art,"Centre Square, Middlesbrough, TS1 2AZ",TS1 2AZ,54.5744107614719,-1.23260862433022,www.visitmima.com
Tees Transporter Bridge & Visitor Centre,"Tees Transporter Bridge
Ferry Road
Middlesbrough, TS2 1PL",TS2 1PL,54.583750423712,-1.23011222994058,www.middlesbrough.gov.uk/transporterbridge
Morpeth Chantry Bagpipe Museum,"Bridge Street, Morpeth, Northumberland, NE61 1PD",NE61 1PD,55.1668714532298,-1.68693204242576,www.experiencewoodhorn.com
Newburn Hall Motor Museum,"35 Townfield Gardens, Newburn, Newcastle upon Tyne, NE15 8PY",NE15 8PY,54.9867579041751,-1.74210716156821
A Soldier’s Life,"Discovery Museum, Blandford Square, Newcastle upon Tyne, NE1 4JA",NE1 4JA,54.9691450667042,-1.62475508056297,www.lightdragoons.org.uk
Discovery Museum,"Blandford Square, Newcastle upon Tyne, Tyne & Wear, NE1 4JA",NE1 4JA,54.9691450667042,-1.62475508056297,www.discoverymuseum.org.uk
Great North Museum: Hancock,"Barras Bridge, Newcastle upon Tyne, Tyne & Wear, NE2 4PT",NE2 4PT,54.9805032480805,-1.61313378311871,www.greatnorthmuseum.org.uk
Laing Art Gallery,"New Bridge Street, Newcastle upon Tyne, Tyne and Wear, NE1 8AG",NE1 8AG,54.9749554501786,-1.60929704721942,www.laingartgallery.org.uk
Life Science Centre,"Times Square, Newcastle upon Tyne, NE1 4EP",NE1 4EP,54.9675704149129,-1.62119282728609,www.life.org.uk
"Seven Stories, National Centre for Children’s Books","30 Lime Street, Ouseburn Valley, Newcastle upon Tyne, NE1 2PQ",NE1 2PQ,54.9747652015481,-1.59239529409812,www.sevenstories.org.uk
Stephenson Railway Museum,"Middle Engine Lane, North Shields, Tyne and Wear, NE29 8DX",NE29 8DX,55.0164653890915,-1.49734230905478,www.stephensonrailwaymuseum.org.uk
"Locomotion, The National Railway Museum at Shildon","Shildon, County Durham, DL4 1PQ",DL4 1PQ,54.627187555296,-1.64176979473465,www.nrm.org.uk/locomotion
Cleveland Ironstone Mining Museum,"Mill Lane, Deepdale, Skinningrove, North Yorkshire, TS13 4AP",TS13 4AP,54.5633967672269,-0.900014789466105,www.ironstonemuseum.co.uk
Arbeia Roman Fort and Museum,"Baring Street, South Shields, Tyne and Wear, NE33 2BB",NE33 2BB,55.0041271835285,-1.43195852697869,www.arbeiaromanfort.org.uk
South Shields Museum & Art Gallery,"Ocean Road, South Shields, Tyne and Wear, NE33 2JA",NE33 2JA,54.9986703732262,-1.43150409745707,www.southshieldsmuseum.org.uk
Preston Hall Museum,"Yarm Road, Stockton-on-Tees, Tees Valley, TS18 3RH",TS18 3RH,54.5355317561015,-1.33737836498894,www.stockton.gov.uk/museums
Monkwearmouth Station Museum,"North Bridge Street, Sunderland, Tyne and Wear, SR5 1AP",SR5 1AP,54.9122042049396,-1.38371240076
Northern Gallery for Contemporary Art,"City Library and Arts Centre, Fawcett Street, Sunderland, SR1 1RE",SR1 1RE,54.9050824323285,-1.3810606922274,www.ngca.co.uk
Sunderland Museum & Winter Gardens,"Burdon Road, Sunderland, Tyne and Wear, SR1 1PP",SR1 1PP,54.9041806766402,-1.38045070313188,www.sunderland.gov.uk/museumandwintergardens
"Segedunum Roman Fort, Baths and Museum","Buddle Street, Wallsend, Tyne and Wear, NE28 6HR",NE28 6HR,54.9881298204783,-1.53062405435341,www.segedunumromanfort.org.uk
"Killhope, the North of England Lead Mining Museum","Cowshill, Upper Weardale, County Durham, DL13 1AR",DL13 1AR,54.7797109594095,-2.27066066482678,www.killhope.org.uk
Haworth Art Gallery,"Haworth Park, Manchester Road, Accrington, Lancashire, BB5 2JS",BB5 2JS,53.7411753752649,-2.3565724951751,www.hyndburnbc.gov.uk/hag
South Tynedale Railway,"The Railway Station, Alston, Cumbria, CA9 3JB",CA9 3JB,54.8145257915307,-2.44173375745805,www.strps.org.uk
Armitt Museum & Library,"Rydal Road, Ambleside, Cumbria, LA22 9BL",LA22 9BL,54.4353118538796,-2.96361894120404,www.armitt.com
Bancroft Mill Engine Trust,"Gillians Lane, Barnoldswick, nr Colne, Lancashire, BB8 5QR",BB8 5QR,,,www.bancroftmill.org.uk
Pendle Heritage Centre,"Park Hill, Barrowford, Nelson, Lancashire, BB9 6JQ",BB9 6JQ,53.8535405562199,-2.20911112365215,www.htnw.co.uk
Birkenhead Priory & St Mary’s Tower,"Priory Street, Birkenhead, CH41 5JH",CH41 5JH,53.3905303227621,-3.01209246938555,www.visitwirral.com
Williamson Art Gallery and Museum,"Slatey Road, Birkenhead, CH43 4UE",CH43 4UE,53.3858156674421,-3.04083364155637,www.williamsonartgallery.org
Wirral Transport Museum and Birkenhead Tramway,"1 Taylor Street, Birkenhead, CH41 1BG",CH41 1BG,53.3961676731314,-3.01933974507078,www.visitwirral.com
Bolton Library and Museum Service,"Le Mans Crescent, Bolton, Lancashire, BL1 1SE",BL1 1SE,53.5773887148637,-2.43129457432302,www.boltonmuseums.org.uk
Bolton Steam Museum,"Mornington Road, Off Chorley Old Road, Bolton, Lancs, BL1 4EU",BL1 4EU,53.5862521324203,-2.45294102143282,www.nmes.org
Hall i’th’ Wood Museum,"Green Way, off Crompton Way, Bolton, BL1 8UA",BL1 8UA,53.5996116892321,-2.41755876860778,www.boltonmuseums.org.uk
"Blackwell, The Arts & Crafts House","Bowness-on-Windermere, Cumbria, LA23 3JT",LA23 3JT,54.3433184442568,-2.92190097824835,www.blackwell.org.uk
Museum of Local History,"Towneley Holmes Road, Burnley, Lancashire, BB11 3RQ",BB11 3RQ,53.7741067504355,-2.22313015372021,www.towneleyhall.org.uk
Queen Street Mill Textile Museum,"Queen Street, Harle Syke, Burnley, Lancashire, BB10 2HX",BB10 2HX,53.8107093607991,-2.20078808953519,www.lancashire.gov.uk/museums
Towneley Hall Art Gallery and Museums,"Towneley Holmes Road, off Todmorden Road, Burnley, Lancashire, BB11 3RQ",BB11 3RQ,53.7741067504355,-2.22313015372021,towneleyhall@burnley.gov.uk
Bury Art Museum & Sculpture Centre,"Moss Street, Bury, Lancashire, BL9 0DR",BL9 0DR,53.5910219173777,-2.29957443846022,www.BuryArtMuseum.co.uk
Cumbria's Museum of Military Life,"Alma Block, The Castle, Carlisle, Cumbria, CA3 8UR",CA3 8UR,54.8971036625359,-2.94299335395284,www.cumbriasmuseumofmilitarylife.org
Guildhall Museum,"Greenmarket
Carlisle
Cumbria, CA3 8JE",CA3 8JE,54.8948888577533,-2.93654879089986,www.tulliehouse.co.uk
Tullie House Museum and Art Gallery,"Castle Street, Carlisle, Cumbria, CA3 8TP",CA3 8TP,54.8954217390364,-2.93969523276891,www.tulliehouse.co.uk
Grosvenor Museum,"27 Grosvenor St, Chester, Cheshire, CH1 2DD",CH1 2DD,53.1877793363257,-2.89189297711567,www.westcheshiremuseums.co.uk
Clitheroe Castle Museum,"Castle Hill, Clitheroe, Lancashire, BB7 1BA",BB7 1BA,53.8703257197552,-2.39337936930591,www.lancashire.gov.uk
Printing House Trust,"102 Main St, Cockermouth, Cumbria, CA13 9LX",CA13 9LX,54.6636108768265,-3.36752806377507
Ruskin Museum,"Yewdale Road, Coniston, Cumbria, LA21 8DU",LA21 8DU,54.3696991631741,-3.07583346229928,www.ruskinmuseum.com
Stretton Watermill,"Mill Lane, Stretton, Nr Farndon, Cheshire, SY14 7HS",SY14 7HS,53.0718546860128,-2.82185210438034,www.strettonwatermill.org.uk
Fleetwood Museum,"Queen’s Terrace, Fleetwood, FY7 6BT",FY7 6BT,53.9255979729864,-3.00623381786282,www.lancashire.gov.uk.museums
Cheshire West Museums,"27 Grosvenor Street, Chester, CH1 2DD",CH1 2DD,53.1877793363257,-2.89189297711567,www.westcheshiremuseums.co.uk
Helmshore Mills Textile Museum,"Holcombe Road, Helmshore, Rossendale, Lancashire, BB4 4NP",BB4 4NP,53.689448194418,-2.33814535270376,www.lancashire.gov.uk/museums
Abbot Hall Art Gallery,"Abbot Hall, Kendal, Cumbria, LA9 5AL",LA9 5AL,54.3229769235499,-2.74395737037218,www.abbothall.org.uk
Kendal Museum,"Station Road, Kendal, Cumbria, LA9 6BT",LA9 6BT,54.3321791950087,-2.74117089740744,www.kendalmuseum.org.uk
Museum of Lakeland Life & Industry,"Abbot Hall, Kendal, Cumbria, LA9 5AL",LA9 5AL,54.3229769235499,-2.74395737037218,www.lakelandmuseum.org.uk
Quaker Tapestry Museum,"Quaker Tapestry
Stramongate, Kendal
Cumbria, LA9 4BH",LA9 4BH,54.3281802401696,-2.74402055736363,www.quaker-tapestry.co.uk/
Cumberland Pencil Museum,"Southey Works, Greta Bridge, Keswick, Cumbria, CA12 5NG",CA12 5NG,54.6044343124022,-3.1414327162411,www.pencilmuseum.co.uk
Mirehouse,"Keswick, Cumbria, CA12 4QE",CA12 4QE,54.6439747370101,-3.19036240379595,www.mirehouse.com
Cottage Museum,"15 Castle Hill, Lancaster, LA1 1YS",LA1 1YS,54.0498186571533,-2.80369116864869,www.lancashire.gov.uk/museum
Judges’ Lodgings,"Church Street, Lancaster, LA1 1YS",LA1 1YS,54.0498186571533,-2.80369116864869,www.lancashire.gov.uk/museums
King's Own Royal Regiment Museum,"City Museum, Market Square, Lancaster, LA1 1HT",LA1 1HT,54.0488492738411,-2.80080103055538,http://www.kingsownmuseum.com/index.htm
Lancaster City Museum,"Market Square, Lancaster, LA1 1HT",LA1 1HT,54.0488492738411,-2.80080103055538,www.lancashire.gov.uk
Lancaster Maritime Museum,"Custom House, St George’s Quay, Lancaster, LA1 1RB",LA1 1RB,54.0534041374087,-2.80513516148503,www.lancashire.gov.uk/museums
Roman Bath House,"Vicarage Field, Lancaster",No Valid Postcode Found,,
Turnpike Gallery,"Turnpike Centre, Civic Square, Leigh, Greater Manchester, WN7 1EB",WN7 1EB,53.497775664878,-2.52002817993694,www.wlct.org/turnpike
British Commercial Vehicle Museum,"King Street, Leyland, Lancashire, PR25 2LE",PR25 2LE,53.6946360611543,-2.69280149316477,www.bcvmt.co.uk
South Ribble Museum and Exhibition Centre,"The Old Grammar School, Church Road, Leyland, Lancashire, PR25 3FJ",PR25 3FJ,53.6888599225683,-2.69532634146506,www.southribblemuseum.org.uk
Garstang Museum of Archaeology,"14 Abercromby Square,
University of Liverpool,
Liverpool., L69 7WZ",L69 7WZ,53.4023050521891,-2.96551858457411,https://garstangmuseum.wordpress.com/
Open Eye Gallery,"19 Mann Island
Waterfront 
Liverpool, L3 1XB",L3 1XB,,,www.openeye.org.uk
Tate Liverpool,"Albert Dock, Liverpool, L3 4BB",L3 4BB,53.4003898446498,-2.99406725462506,www.tate.org.uk/liverpool
Lytham Hall,"Ballam Road, Lytham, Lancashire, FY8 4JX",FY8 4JX,53.7469224348663,-2.97319212171074,www.lythamhall.co.uk
Lytham Heritage Centre,"2 Henry Street, Lytham, Lancashire, FY8 5LE",FY8 5LE,53.7363876269846,-2.9654595212849,www.lythamheritage.co.uk
Lytham Windmill and Lifeboat Museum,"c/o 2 Henry Street, Lytham, Lancashire, FY8 5LE",FY8 5LE,53.7363876269846,-2.9654595212849,www.lythamwindmill.co.uk
Macclesfield Museums,"The Heritage Centre, Roe Street, Macclesfield, Cheshire., SK10 6UR",SK10 6UR,,,www.silkmacclesfield.org.uk
Paradise Mill,"Park Lane, Macclesfield, Cheshire, SK11 6TJ",SK11 6TJ,53.2557449741914,-2.12508950878895,www.macclesfield.silk.museum
"Silk Museum, Heritage Centre Galleries","The Heritage Centre, Roe Street, Macclesfield, Cheshire, SK11 6UT",SK11 6UT,53.25772939497,-2.12707396565407,www.macclesfield.silk.museum
"Silk Museum, Park Lane Galleries","Park Lane, Macclesfield, SK11 6TJ",SK11 6TJ,53.2557449741914,-2.12508950878895,www.macclesfield.silk.museum
West Park Museum,"Prestbury Road, Macclesfield, SK10 3BJ",SK10 3BJ,53.2636357771558,-2.13457245757696,www.macclesfield.silk.museum
Greater Manchester Police Museum & Archives,"57A Newton Street, Manchester, M1 1ET",M1 1ET,53.4824655951077,-2.23256536954785,www.gmpmuseum.co.uk
"Museum of Medicine and Health, University of Manchester","Room 1.722, Stopford Building, Oxford Road, Manchester, M13 9PT",M13 9PT,53.464377220242,-2.22977019445586,http://www.mms.manchester.ac.uk/museum/
Museum of Science and Industry,"Liverpool Road, Castlefield, Manchester, M3 4FP",M3 4FP,53.4767238024751,-2.25374814568211,www.mosi.org.uk
Museum of Transport - Greater Manchester,"Boyle Street, Cheetham, Manchester, M8 8UW",M8 8UW,53.5014274335735,-2.23449340179518,www.gmts.co.uk
People’s History Museum,"Left Bank, Spinningfields, Manchester, M3 3ER",M3 3ER,53.4813178078235,-2.25332352853186,www.phm.org.uk
Maryport Maritime Museum,"1 Senhouse Street, Maryport, Cumbria, CA15 6AB",CA15 6AB,54.7144201917031,-3.50021223572594,www.allerdale.gov.uk
Senhouse Roman Museum,"The Battery, Sea Brows, Maryport, Cumbria, CA15 6JD",CA15 6JD,54.7195516600853,-3.49661346200619,www.senhousemuseum.co.uk
Nantwich Museum,"Pillory Street, Nantwich, Cheshire, CW5 5BQ",CW5 5BQ,53.0654190349834,-2.52056358522228,www.nantwichmuseum.org.net
British in India Museum,"Hendon Mill, Hallam Road, Nelson, Lancashire, BB9 8AD",BB9 8AD,53.839093806897,-2.20045293109519
Lion Salt Works,"Ollershaw Lane, Marston, Northwich, Cheshire, CW9 6ES",CW9 6ES,53.2744372477429,-2.49601825099513,www.westcheshiremuseums.co.uk
Weaver Hall Museum and Workhouse,"162 London Road, Northwich, Cheshire, CW9 8AB",CW9 8AB,53.2541193517489,-2.51372455021258,www.westcheshiremuseums.co.uk
Gallery Oldham,"Cultural Quarter, Greaves Street, Oldham, OL1 1AL",OL1 1AL,53.5401677120032,-2.10925433578287,www.galleryoldham.org.uk
Gawthorpe Hall,"Padiham, near Burnley, Lancashire, BB12 8UA",BB12 8UA,53.8025013493659,-2.29701191708185,www.lancashire.gov.uk/museums
Penrith and Eden Museum,"Robinson’s School, Middlegate, Penrith, Cumbria, CA11 7PT",CA11 7PT,54.6655241700781,-2.75383409865267,www.eden.gov.uk/museum
Port Sunlight Village Trust Museum,"23 King George’s Drive, Port Sunlight, Wirral, Merseyside, CH62 5DX",CH62 5DX,53.3542460989208,-2.9976955349235,www.portsunlightvillage.com
Anson Engine Museum,"Anson Road, Poynton, Cheshire, SK12 1TD",SK12 1TD,53.3479032109273,-2.08827178040246,www.enginemuseum.org
Prescot Museum,"The Prescot Centre, Prescot Shopping Centre, Aspinall Street, Prescot, Knowsley, L34 5GA",L34 5GA,53.4288339673723,-2.80375558373094,www.prescotmuseum.org.uk
Lancashire Infantry Museum,"Fulwood Barracks, Preston, Lancashire, PR2 8AA",PR2 8AA,53.7781316465003,-2.68589091725302,www.lancashireinfantrymuseum.org.uk
Museum of Lancashire,"Stanley Street, Preston, Lancashire, PR1 4YP",PR1 4YP,53.7613192469759,-2.68824103094666,www.lancashire.gov.uk/museums
Ellenroad Engine House,"Elizabethan Way, Newhey, Rochdale, OL16 4LE",OL16 4LE,53.6011027772835,-2.10551322148436,www.ellenroad.org.uk
Rochdale Pioneers Museum,"31 Toad Lane, Rochdale, Lancashire, OL12 0NU",OL12 0NU,53.6197831039542,-2.15977225967959,www.rochdalepioneersmuseum.coop
Norton Priory Museum and Gardens,"Tudor Road, Runcorn, Cheshire, WA7 1SX",WA7 1SX,53.3422572805273,-2.68028549225121,www.nortonpriory.org
World of Glass,"Chalon Way East, St Helens, Merseyside, WA10 1BX",WA10 1BX,53.4500855859824,-2.73502635757624,www.worldofglass.com
Ordsall Hall,"322 Ordsall Lane, Ordsall, Salford, M5 3AN",M5 3AN,53.4694535514682,-2.2773708180784,http://www.salfordcommunityleisure.co.uk/culture/ordsall-hall
Salford Museum and Art Gallery,"Peel Park, Salford, M5 4WU",M5 4WU,53.4851605140398,-2.27167144926649,http://www.salfordcommunityleisure.co.uk/culture/salford-museum-and-art-gallery
British Lawnmower Museum,"106-114 Shakespeare Street, Southport, Merseyside, PR8 5AJ",PR8 5AJ,53.6394182963464,-3.00494395228226,www.lawnmowerworld.com
The Atkinson,"The Atkinson
Lord Street
Southport, PR8 1DH",PR8 1DH,53.6470467870822,-3.00635075870818,www.theatkinson.co.uk
Chadkirk Chapel,"Vale Road, Chadkirk, near Romiley, Stockport, SK6 3LD",SK6 3LD,53.4043042624929,-2.09144220425246,www.stockport.gov.uk/chadkirkchapel
Hat Works - the Museum of Hatting,"Wellington Mill, Wellington Road South, Stockport, SK3 0EU",SK3 0EU,53.4086425231238,-2.1621527548605,www.stockport.gov.uk/hatworks
Stockport Museum,"30/31 Market Place, Stockport, SK1 1ES",SK1 1ES,53.4117689856629,-2.15658336959566,www.stockport.gov.uk/stockportstory
Turton Tower,"Chapeltown Road, Turton, near Bolton, Lancashire, BL7 0HG",BL7 0HG,53.6320758692333,-2.40758116021871,www.visitblackburn.co.uk
Saddleworth Museum and Art Gallery,"High Street, Uppermill, Saddleworth, Oldham, OL3 6HS",OL3 6HS,53.5471654563898,-2.00702492965187,www.saddleworthmuseum.co.uk
The Beacon,"West Strand, Whitehaven, Cumbria, CA28 7LY",CA28 7LY,54.54858366128,-3.59467703534943,www.thebeacon-whitehaven.co.uk
Whitworth Historical Society,"North Street, Whitworth, Rochdale, OL12 8RE",OL12 8RE,53.6595507105948,-2.17628055430481,www.whitworthhistoricalsociety.org.uk
Gordon Highlanders Museum,"St Luke’s, Viewfield Road, Aberdeen, AB15 7XH",AB15 7XH,57.1370845721137,-2.14636617250418,www.gordonhighlanders.com
University of Aberdeen - King's Museum,"University of Aberdeen
King's Museum
Old Aberdeen Town House
High Street
Aberdeen, AB24 3EN",AB24 3EN,57.1666911750685,-2.10251674761748,www.abdn.ac.uk/ museums
University of Aberdeen Museums,"University of Aberdeen Museums
King's Museum
Aberdeen, AB24 3EN",AB24 3EN,57.1666911750685,-2.10251674761748,www.abdn.ac.uk/museums
Grampian Transport Museum,"Alford, Aberdeenshire, AB33 8AE",AB33 8AE,57.2351833092631,-2.70300332148288,www.gtm.org.uk
Clackmannanshire Council Museum & Heritage Service,"c/o Alloa Library, Drysdale Street, Alloa, FK10 1JL",FK10 1JL,56.1156942576469,-3.7911008907088,www.clacksweb.org.uk
Robert Burns Birthplace Museum,"Murdoch's Lone , Alloway, Ayr, KA7 4PQ",KA7 4PQ,55.4274107744697,-4.6369387268516,www.burnsmuseum.org.uk
Annan Museum,"Bank Street, Annan, DG12 6AA",DG12 6AA,54.9869157180018,-3.2622713027452,www.dumgal.gov.uk/artsandmuseums
Scottish Fisheries Museum,"St Ayles, Harbourhead, Anstruther, Fife, KY10 3AB",KY10 3AB,56.2218921785242,-2.69639917885268,www.scotfishmuseum.org
Banchory Museum,"Bridge Street, Banchory, Kincardineshire, AB31 5SX",AB31 5SX,57.0503512350362,-2.50358173185875,www.aberdeenshire.gov.uk/heritage/
Banff Museum,"High Street, Banff, Banffshire, AB45 1AE",AB45 1AE,57.6638371813158,-2.52301957349806
Museum of the King’s Own Scottish Borderers,"The Barracks, Berwick-upon-Tweed, Northumberland, TD15 1DG",TD15 1DG,55.7713478319573,-2.0002773336347,www.kosb.co.uk
Biggar & Upper Clydesdale Museum,"Biggar & Upper Clydesdale Museum
156 High Street
Biggar
South Lanarkshire, ML12 6DT",ML12 6DT,55.6244611545579,-3.52556357195517,www.biggarmuseumtrust.co.uk
Greenhill,"Burn Braes, Biggar, Lanarkshire, ML12 6DT",ML12 6DT,55.6244611545579,-3.52556357195517,www.biggarmuseumtrust.co.uk
Kinneil Museum and Roman Fortlet,"Duchess Anne Cottages, Kinneil Estate, Bo’ness, EH51 0PR",EH51 0PR,56.0078499938007,-3.63254537694575,http://www.falkirkcommunitytrust.org/heritage/
Fife Folk Museum,"High Street, Ceres,  Fife, KY15 5NF",KY15 5NF,56.2920881745917,-2.97016521638071,www.fifefolkmuseum.org
Baird Institute,"Lugar Street, Cumnock, Ayrshire, KA18 1AD",KA18 1AD,55.4545091090602,-4.26667690279728,www.futuremuseum.co.uk
Doon Valley Museum,"Cathcartston, Dalmellington, Ayrshire, KA6 7QY",KA6 7QY,55.3227646932026,-4.39737981986788,www.east-ayrshire.gov.uk
Dingwall Museum,"Town House, High Street, Dingwall, Ross and Cromarty, IV15 9RY",IV15 9RY,57.5955885989527,-4.42879965196653
Denny Ship Model Experiment Tank,"Castle Street, Dumbarton, G82 1QS",G82 1QS,55.9433439582634,-4.56694241169966,www.scottishmaritimemuseum.org
Dumfries and Galloway Aviation Museum,"Former Control Tower, Heathhall Industrial Estate, Dumfries, DG1 3PH",DG1 3PH,55.0898246650278,-3.56215547250906,www.dumfriesaviationmuseum.com
Dumfries and Galloway Museums Service,"Dumfries Museum & Camera Obscura, The Observatory, Rotchell Road, Dumfries, DG2 7SW",DG2 7SW,55.0649504685329,-3.6150082000467,www.dumgal.gov.uk/artsandmuseumswww.futuremuseum.co.uk
Dumfries Museum & Camera Obscura,"The Observatory, Rotchell Road, Dumfries, DG2 7SW",DG2 7SW,55.0649504685329,-3.6150082000467,www.dumgal.gov.uk/artsandmuseumswww.futuremuseum.co.uk
Gracefield Arts Centre,"28 Edinburgh Road, Dumfries, DG1 1JQ",DG1 1JQ,55.0740814602171,-3.60754449717332,www.exploreart.co.uk/artists.asp
John Paul Jones Birthplace Museum And Cottage,"John Paul Jones Cottage, Arbigland, Kirkbean, Dumfries, DG2 8BQ",DG2 8BQ,54.9016770343317,-3.57733473086041,www.jpj.demon.co.uk
Old Bridge House Museum,"Mill Street, Dumfries, DG2 7BE",DG2 7BE,55.0675920869767,-3.61708786402985,www.dumgal.gov.uk/artsandmuseumswww.futuremuseum.co.uk
Robert Burns Centre,"Mill Road, Dumfries, DG2 7BE",DG2 7BE,55.0675920869767,-3.61708786402985,www.dumgal.gov.uk/artsandmuseumswww.futuremuseum.co.uk
Robert Burns House,"Burns Street, Dumfries, DG1 2PS",DG1 2PS,55.065838087741,-3.60769941352932,www.dumgal.gov.uk/artsandmuseumswww.futuremuseum.co.uk
John Muir’s Birthplace,"126 High Street, Dunbar, East Lothian, EH42 1JJ",EH42 1JJ,56.0028189913161,-2.51693415108281,www.jmbt.org.uk
D’Arcy Thompson Zoology Museum,"Carnelley Building, University of Dundee, Dundee, DD1 4HN",DD1 4HN,56.4573507354249,-2.97826932182169,www.dundee.ac.uk/museum/zoology/
Discovery Point/Royal Research Ship Discovery,"Discovery Point, Riverside Drive, Dundee, DD1 4XA",DD1 4XA,56.4558860656016,-2.97028099460649,www.rrsdiscovery.com
Scotland's Jute Museum @ Verdant Works,"West Henderson’s Wynd, Dundee, DD1 5BT",DD1 5BT,56.4613630710323,-2.98442561725621,www.verdantworks.com
Tayside Medical History Museum,"Ninewells Hospital & Medical School, Dundee, DD1 9SY",DD1 9SY,56.4616938045392,-2.99141237117508,www.dundee.ac.uk/museum/medical.htm
University of Dundee Museum Services,"Hawkhill House, University of Dundee, Dundee, DD1 4HN",DD1 4HN,56.4573507354249,-2.97826932182169,www.dundee.ac.uk/museum/
Shetland Croft House Museum,"South Voe, Dunrossness, Shetland, ZE2 9JQ",ZE2 9JQ,59.9322392228051,-1.28284213612737,www.shetlandmuseumandarchives.org.uk
National Museum of Rural Life,"Wester Kittochside, Philipshill Road, East Kilbride, G76 9HR",G76 9HR,55.7738320990877,-4.22561328915583,www.nms.ac.uk/rural
National Museum of Flight,"East Fortune Airfield, East Lothian, EH39 5LF",EH39 5LF,56.0059801954856,-2.71042179203787,www.nms.ac.uk/flight
City Art Centre,"2 Market Street, Edinburgh, EH1 1DE",EH1 1DE,55.9507418695421,-3.19025942154113,www.edinburghmuseums.org.uk
Edinburgh Brass Rubbing Centre,"Trinity Apse, Chalmers Close, High Street, Edinburgh, EH1 1SS",EH1 1SS,55.9507036274122,-3.1858382891614,www.edinburghmuseums.org.uk
Lauriston Castle,"2a Cramond Road South, Edinburgh, EH4 5QD",EH4 5QD,55.9688684962932,-3.2787765212258,www.edinburghmuseums.org.uk
Museum of Edinburgh,"142 Canongate, Royal Mile, Edinburgh, EH8 8DD",EH8 8DD,55.9514706548245,-3.17894341277833,www.edinburghmuseums.org.uk
National Galleries of Scotland,"70 Belford Road, Edinburgh, EH4 3DE",EH4 3DE,55.9509452845385,-3.22271100755409,www.nationalgalleries.org
National Library of Scotland,"George IV Bridge, Edinburgh, EH1 1EW",EH1 1EW,,,www.nls.uk
National Museum of Scotland,"Chambers Street, Edinburgh, EH1 1JF",EH1 1JF,55.9471797115833,-3.18973378352549,www.nms.ac.uk
Nelson Monument,"32 Calton Hill, Edinburgh, EH7 5AA",EH7 5AA,55.9543205766071,-3.18534028437502,www.edinburghmuseums.org.uk
Newhaven Heritage Museum,"24 Pier Place, Edinburgh, EH6 4LP",EH6 4LP,55.980665332028,-3.1956340161234,www.cac.org.uk
People’s Story,"Canongate Tolbooth, Royal Mile, 163 Canongate, Edinburgh, EH8 8BN",EH8 8BN,55.9513823901244,-3.18065429264712,www.edinburghmuseums.org.uk
Royal Observatory Visitor Centre,"Blackford Hill, Edinburgh, EH9 3HJ",EH9 3HJ,55.9232244596337,-3.18786341529573,www.roe.ac.uk/vc
Scott Monument,"Princes Street, Edinburgh, EH2 2EJ",EH2 2EJ,55.9522937322018,-3.19331786883846,www.edinburghmuseums.org.uk
Scottish National Gallery,"The Mound, Edinburgh, EH2 2EL",EH2 2EL,55.9518324400531,-3.1964105516657,www.nationalgalleries.org
Scottish National Gallery of Modern Art,"73 & 75 Belford Road, Edinburgh, EH4 3DR",EH4 3DR,55.9510457568442,-3.22526049055339,www.nationalgalleries.org
Scottish National Portrait Gallery,"1 Queen Street, Edinburgh, EH2 1JD",EH2 1JD,55.955516850608,-3.19359322949514,www.nationalgalleries.org
Surgeons’ Hall Museums,"The Royal College of Surgeons of Edinburgh, Nicolson Street, Edinburgh, EH8 9DW",EH8 9DW,55.946750053337,-3.18490078031187,http://www.museum.rcsed.ac.uk/
Talbot Rice Gallery,"University of Edinburgh, Old College, South Bridge, Edinburgh, EH8 9YL",EH8 9YL,55.9476969294632,-3.18734768146803,www.trg.ed.ac.uk
The Fruitmarket Gallery,"45 Market Street, Edinburgh, Scotland, EH1 1DF",EH1 1DF,55.9512188864262,-3.190177973046,www.fruitmarket.co.uk
Writers’ Museum,"Lady Stair’s House, Lady Stair’s Close, Lawnmarket, Royal Mile, Edinburgh, EH1 2PA",EH1 2PA,55.9495245484072,-3.19348889440695,www.edinburghmuseums.org.uk
Elgin Museum,"1 High Street, Elgin, Moray, IV30 1EQ",IV30 1EQ,57.649074837081,-3.31054721809277,www.elginmuseum.org.uk
Eyemouth Museum,"Auld Kirk, Manse Road, Eyemouth, Berwickshire, TD14 5JE",TD14 5JE,55.8714350709317,-2.08866647329926,eyemouthmuseum.co.uk
Callendar House,"Callendar Park, Falkirk, FK1 1YR",FK1 1YR,55.9944454217944,-3.76725714165757,http://www.falkirkcommunitytrust.org/heritage/
Nelson Tower,"7 Broom Walk
Findhorn
Forres
Moray, IV36 3WF",IV36 3WF,57.6585017102827,-3.60632323906728,www.forresheritage.org
Highlanders’ Museum,"Fort George, Ardersier, by Inverness, IV2 7TD",IV2 7TD,57.5826352007731,-4.05169180677272,www.thehighlandersmuseum.com
West Highland Museum,"Cameron Square, Fort William, Inverness-shire, PH33 6AJ",PH33 6AJ,56.8177932551961,-5.11036651479622,www.westhighlandmuseum.org.uk
Sandhaven Meal Mill,"Sandhaven, by Fraserburgh, Aberdeenshire, AB43 4EP",AB43 4EP,,
Gairloch Heritage Museum,"Achtercairn, Gairloch, Ross-shire, IV21 2BP",IV21 2BP,57.72889737714,-5.69272395570399,www.gairlochheritagemuseum.org
McKechnie Institute,"40a Dalrymple Street, Girvan, Ayrshire, KA26 9AE",KA26 9AE,55.2425425290883,-4.85571194329021
Centre for Contemporary Arts,"350 Sauchiehall Street, Glasgow, G2 3JD",G2 3JD,55.8660483253732,-4.26668782587377,www.cca-glasgow.com
Fossil Grove,"Victoria Park, Glasgow, G14 1BN",G14 1BN,,,www.glasgowmuseums.com
Museum of Anatomy,"Laboratory of Human Anatomy/IBLS, University of Glasgow, Glasgow, G12 8QQ",G12 8QQ,55.8717586290522,-4.28836092208379,www.hunterian.gla.ac.uk
The Lighthouse,"11 Mitchell Lane, Glasgow, G1 3NU",G1 3NU,55.8598599839981,-4.25522100460739
Glencoe Folk Museum,"Glencoe Village, Glencoe, Argyll, PH49 4HS",PH49 4HS,56.6826357905754,-5.10103530264742,www.glencoemuseum.co.uk
Grantown Museum,"Burnfield House, Burnfield Avenue, Grantown-on-Spey, Moray, PH26 3HH",PH26 3HH,57.3326832547544,-3.60458155167148,www.grantownmuseum.co.uk
East Lothian Council Museums Service,"Library & Museums HQ, Dunbar Road, Haddington, East Lothian, EH41 3PJ",EH41 3PJ,55.9607065314994,-2.7743034291403,www.eastlothianmuseums.org
Low Parks Museum,"129 Muir Street, Hamilton, Lanarkshire, ML3 6BJ",ML3 6BJ,55.7789030277601,-4.03687149799565
The Story of Skerryvore Lighthouse Exhibition,"Morton Boyd Hall, Hynish, Isle of Tiree, Argyll, PA77 6UG",PA77 6UG,56.4487758238183,-6.89372383919093,www.hebrideantrust.org
Auchindrain,"Inveraray, Argyll, PA32 8WD",PA32 8WD,56.1795505841885,-5.17629479401057,www.auchindrain.org.uk
Iona Heritage Centre,"Iona Heritage Centre, Isle of Iona, Argyll, PA76 6SJ",PA76 6SJ,56.3312168441892,-6.39274496561976,http://www.welcometoiona.com/places-of-interest/heritage_centre
Mary Queen of Scots’ Visitor Centre,"Queen Street, Jedburgh, Roxburghshire, TD8 6EN",TD8 6EN,55.4786371515274,-2.55270230801904,www.liveborders.org.uk
Dean Castle,"Dean Castle Country Park, off Dean Road, Kilmarnock, Ayrshire, KA3 1XB",KA3 1XB,55.6232403515895,-4.48373113063064,www.enjoyeastayrshire.com
Dick Institute,"Elmbank Avenue, Kilmarnock, Ayrshire, KA1 3BU",KA1 3BU,55.6085323737471,-4.48964465657636,www.enjoyeastayrshire.com
East Ayrshire Council Cultural and Countryside Service,"The Palace Complex, 9 Green Street, Ayrshire, Kilmarnock, KA1 3BN",KA1 3BN,55.6097075051653,-4.49418122808574,www.enjoyeastayrshire.com
Kilmartin Museum,"Kilmartin, Argyll, PA31 8RQ",PA31 8RQ,56.1382344673446,-5.4841690112039,www.kilmartin.org
Michael Bruce Cottage Museum,"The Cobbles, Kinnesswood, Kinross, KY13 9HL",KY13 9HL,56.2133090664535,-3.32887505264404
Clan Armstrong Museum,"Lodge Walk, Castleholm, Langholm, Dumfriesshire, DG13",No Valid Postcode Found,,,www.armstrongclan.org
Almond Valley Heritage Trust,"Livingston Mill, Millfield, Livingston, West Lothian, EH54 7AR",EH54 7AR,55.8858943278121,-3.54736544549264,www.almondvalley.co.uk
Lyth Arts Centre,"Wick, Caithness, KW1 4UD",KW1 4UD,58.5431428706672,-3.20378010783176,www.lytharts.org.uk
Mallaig Heritage Centre,"Station Road, Mallaig, Inverness-shire, PH41 4PY",PH41 4PY,57.0059360546768,-5.82894950210119,www.mallaigheritage.org.uk
Burns House Museum,"Castle Street, Mauchline, Ayrshire, KA5 5BZ",KA5 5BZ,55.5160505858089,-4.3798330878161,www.east-ayrshire.gov.uk
Maud Railway Museum,"Maud Station, Maud, Aberdeenshire, AB42 5LY",AB42 5LY,57.5221979847592,-2.12548598701271
Trimontium Museum,"The Ormiston, Market Square, Melrose, Roxburghshire, Scotland, TD6 9PN",TD6 9PN,55.5971593816252,-2.72000992161019,www.trimontium.org.uk
Lillie Art Gallery,"Lillie Art Gallery, Station Road, Milngavie, Glasgow, G62 8BZ",G62 8BZ,55.9419370454513,-4.31219703897911,www.eastdunbarton.gov.uk
Aberdeenshire Farming Museum,"Aden Country Park, Mintlaw, Peterhead, Aberdeenshire, AB42 5FQ",AB42 5FQ,57.5216003055753,-2.03324254993566,www.aberdeenshire.gov.uk/heritage/
Aberdeenshire Museums Service,"Station Road, Mintlaw, Peterhead, Aberdeenshire, AB42 5EE",AB42 5EE,57.5250986976879,-2.00673113774979,www.aberdeenshire.gov.uk/heritage/
Moffat Museum,"Harthope House, Church Gate, Moffat, Dumfries & Galloway, DG10 9EG",DG10 9EG,55.3319181750018,-3.44369187644063,www..moffatmuseum.org
North Lanarkshire Heritage Centre,"High Road, Motherwell, ML1 3HU",ML1 3HU,55.7906491323575,-3.99523059382995,www.culturenl.co.uk/museums
Musselburgh Museum,"65 High Street, 
Musselburgh,
East Lothian., EH21 7BZ",EH21 7BZ,55.9430768342175,-3.04890283123823,http://www.musselburghmuseum.org.uk/
New Lanark Visitor Centre,"Mill No 3, New Lanark World Heritage Site, Lanark, ML11 9DB",ML11 9DB,55.6630954723215,-3.78151161127784,www.newlanark.org
National Mining Museum Scotland,"Lady Victoria Colliery
Newtongrange
Midlothian, EH22 4QN",EH22 4QN,55.8598751961207,-3.06632666470652,www.nationalminingmuseum.com
Cornice Museum of Ornamental Plasterwork,"Innerleithen Road, Peebles, Scottish Borders, EH45 8BA",EH45 8BA,55.6520240341265,-3.18631178854523,lgrandisonandson.co.uk
Museum of Abernethy,"Mornington Stables, School Wynd, Abernethy, Perth, PH2 9JJ",PH2 9JJ,56.3334669291756,-3.31213521635436,www.museumofabernethy.co.uk
The Black Watch Castle & Museum,"Balhousie Castle, Hay Street, Perth, PH1 5HR",PH1 5HR,56.4034638617833,-3.43669233447837,www.theblackwatch.co.uk
Arbuthnot Museum,"St Peter Street, Peterhead, Aberdeenshire, AB42 1QD",AB42 1QD,57.5068022106795,-1.78210011291083,www.aberdeenshire.gov.uk/heritage/
Fordyce Joiner’s Workshop and Visitor Centre,"Fordyce, Portsoy, Banffshire, AB45 2SL",AB45 2SL,57.6612749843765,-2.7471285146561
Prestongrange Museum,"Morrison’s Haven, Prestongrange, East Lothian, EH32 9RX",EH32 9RX,55.9520447256637,-3.00462483921513,www.prestongrange.org
Groam House Museum,"High Street, Rosemarkie, Ross-shire, IV10 8UF",IV10 8UF,57.5906053975251,-4.11538606914503,www.groamhouse.org.uk
Bute Museum,"Stuart Street, Rothesay, Isle of Bute, PA20 0EP",PA20 0EP,55.8359265460771,-5.05447528544377,www.butemuseum.org
British Golf Museum,"Bruce Embankment, St Andrews, Fife, KY16 9AB",KY16 9AB,56.3439769966442,-2.80143348109263,www.britishgolfmuseum.co.uk
Sanquhar Tolbooth Museum,"High Street, Sanquhar, Dumfries and Galloway, DG4 5BN",DG4 5BN,,,www.dumgal.gov.uk/artsandmuseumswww.futuremuseum.co.uk
Queensferry Museum,"53 High Street, South Queensferry, EH30 9HP",EH30 9HP,55.9898173247834,-3.39368798736485,www.edinburghmuseums.org.uk
Stirling Smith Art Gallery and Museum,"Dumbarton Road, Stirling, FK8 2RQ",FK8 2RQ,56.1191371923902,-3.9471682404355,www.smithartgalleryandmuseum.co.uk
Tolbooth Museum,"The Harbour, Stonehaven, Kincardineshire, AB39 2JU",AB39 2JU,56.9608463671709,-2.20253592095466,www.stonehaventolbooth.co.uk
Highland Museum of Childhood,"The Old Station, Strathpeffer, Ross-shire, IV14 9ES",IV14 9ES,57.568540485418,-4.57837839548521,www.highlandmuseumofchildhood.org.uk
Stromness Museum,"52 Alfred Street, Stromness, Orkney, KW16 3DF",KW16 3DF,58.9584831634291,-3.30100249809743,orkneycommunities.co.uk/stromnessmuseum
Tain and District Museum,"Tain Through Time, Tower Street, Tain, Ross-shire, IV19 1DY",IV19 1DY,57.8127697995259,-4.05608037964735,www.tainmuseum.org.uk
Caithness Horizons,"Town Hall, High Street, Thurso, KW14 8AJ",KW14 8AJ,58.595656648934,-3.51880572150342,www.caithnesshorizons.co.uk
Mull Museum,"Main Street, Tobermory, Isle of Mull, Argyll, PA75 6NY",PA75 6NY,,,www.mullmuseum.org.uk
Ullapool Museum,"7 & 8 West Argyle Street, Ullapool, Ross-shire, IV26 2TY",IV26 2TY,57.8958640501173,-5.16263391270487,www.ullapoolmuseum.co.uk
Museum of Lead Mining,"Wanlockhead, Dumfriesshire, ML12 6UT",ML12 6UT,55.3982790184604,-3.77832623803232,www.leadminingmuseum.co.uk
Abingdon County Hall Museum,"Market Place, Abingdon, Oxfordshire, OX14 3HG",OX14 3HG,51.6698115971892,-1.28138951426701,www.abingdon.gov.uk
Aldershot Military Museum,"Queens Avenue, Aldershot, Hampshire, GU11 2LG",GU11 2LG,51.2685657072065,-0.748011388640652,www.hampshireculturaltrust.org.uk
Army Physical Training Corps Museum,"Army School of Physical Training, Fox Lines, Queens Avenue, Aldershot, Hampshire, GU11 2LB",GU11 2LB,51.2639110897142,-0.754229351524762,www.aptc.org.uk
Curtis Museum and Allen Gallery,"High Street, Alton, Hampshire, GU34 1BA",GU34 1BA,51.1497372219955,-0.973911611859075,www.hampshireculturaltrust.org.uk/curtis-museum
Amberley Museum and Heritage Centre,"Station Road, Amberley, Arundel, West Sussex, BN18 9LT",BN18 9LT,50.9008813211826,-0.540026607926135,www.amberleymuseum.co.uk
Amersham Museum,"49-51 High Street, Amersham, Buckinghamshire, HP7 0DP",HP7 0DP,51.6668274742036,-0.617886458378892,www.amershammuseum.org
Andover Museum and Museum of the Iron Age,"6 Church Close, Andover, Hampshire, SP10 1DP",SP10 1DP,51.2100165224906,-1.47737597099304,www.hampshireculturaltrust.org.uk
Buckinghamshire County Museum and Roald Dahl Children's Gallery,"9 Church Street, Aylesbury, Buckinghamshire, HP20 2QP",HP20 2QP,51.817141625982,-0.814749583054024,www.buckscc.gov.uk/museum
Basing House,"Redbridge Lane, Basing, Hampshire, RG24 7HB",RG24 7HB,51.2672830569939,-1.05727036347279,www.hants.gov.uk/museum/basing-house
"Milestones, Hampshire’s Living History Museum","Leisure Park, Churchill Way West, Basingstoke, Hampshire, RG22 6PG",RG22 6PG,51.2649491851103,-1.11778879242649,www.milestones-museum.com
Willis Museum and Sainsbury Gallery,"Old Town Hall, Market Place, Basingstoke, Hampshire, RG21 7QD",RG21 7QD,51.262744115609,-1.08703099976577,www.hampshireculturaltrust.org.uk
Yesterday’s World,"Opposite Battle Abbey, 89/90 High Street, Battle, near Hastings, East Sussex, TN33 0AQ",TN33 0AQ,50.9155454743004,0.486406560050337,www.yesterdaysworld.co.uk
National Motor Museum,"John Montagu Building, Beaulieu, Brockenhurst, Hampshire, SO42 7ZN",SO42 7ZN,50.8230324362074,-1.45361006800473,www.nationalmotormuseum.org.uk
The Hop Farm,"Beltring, Paddock Wood, near Tonbridge, Kent, TN12 6PY",TN12 6PY,51.1972393653659,0.395276895960407,www.thehopfarm.co.uk
Bexhill Museum,"Egerton Road, Bexhill, East Sussex, TN39 3HL",TN39 3HL,50.8369384114394,0.464285893134963,www.bexhill-museum.co.uk
Powell-Cotton Museum,"Powell-Cotton Museum, Quex House and Gardens, Birchington, Kent, CT7 0BH",CT7 0BH,51.3668031114823,1.3157128710646,www.quexmuseum.org
Brading Roman Villa,"Morton Old Road, Brading, Isle of Wight, PO36 OPH",No Valid Postcode Found,,,www.bradingromanvilla.org.uk
Breamore Countryside Museum,"Breamore, near Fordingbridge, Hampshire, SP6 2DF",SP6 2DF,50.97065180311,-1.78397237026817,www.breamorehouse.com
Brenzett Aeronautical Museum,"Ivychurch Road, Brenzett, Romney Marsh, Kent, TN29 0EE",TN29 0EE,51.0089207810295,0.861160749569663,www.brenzettaero.co.uk www.aircraftmuseum.co.uk
Booth Museum of Natural History,"194 Dyke Road, Brighton, East Sussex, BN1 5AA",BN1 5AA,50.8372683792274,-0.153180482850005,www.brightonmuseums.org.uk
Brighton Museum and Art Gallery,"Royal Pavilion Gardens, Brighton, BN1 1EE",BN1 1EE,50.8219937927918,-0.138236372925505,www.brightonmuseums.org.uk
Brighton Toy and Model Museum,"52 - 55 Trafalgar Street, 
Brighton, BN1 4EB",BN1 4EB,50.828445330231,-0.139002122490751,www.brightontoymuseum.co.uk
Preston Manor,"Preston Drove, Brighton, BN1 6SD",BN1 6SD,50.8424981164901,-0.150062136855425,www.brightonmuseums.org.uk
Royal Pavilion,"4-5 Pavilion Buildings, Brighton, East Sussex, BN1 1EE",BN1 1EE,50.8219937927918,-0.138236372925505,www.brightonmuseums.org.uk
Crampton Tower Museum,"The Broadway, Broadstairs, Kent, CT10 2AB",CT10 2AB,51.35964767961,1.43316777648755,www.cramptontower.co.uk
"Agricultural Museum, Brook","The Street, Brook, Ashford, Kent, TN25 5PF",TN25 5PF,51.1619476923165,0.95499191927899,www.agriculturalmuseumbrook.org.uk
Old Gaol Museum,"Market Hill, Buckingham, MK18 1JX",MK18 1JX,52.0005122884526,-0.987513049952783,www.buckinghamoldgoal.org.uk
Tolsey Museum,"126 High Street, Burford, Oxon, OX18 4QU",OX18 4QU,51.8069817704971,-1.6372414252158,www.tolseymuseumburford.com
Royal Military Academy Sandhurst Collection,"Royal Military Academy Sandhurst, Camberley, Surrey, GU15 4PQ",GU15 4PQ,51.3403543032546,-0.768711805276653
"Buffs (Royal East Kent Regiment, 3rd Foot) Display","Beaney, House of Art and Knowledge , 18 High Street, Canterbury, Kent, CT1 2RA",CT1 2RA,51.2796865898443,1.07944293978299,www.canterbury-museums.co.uk
Canterbury Heritage Museum,"Poor Priests’ Hospital, Stour Street, Canterbury, Kent, CT1 2NR",CT1 2NR,51.2792850587187,1.07795323620428,www.canterbury-museums.co.uk
Canterbury Roman Museum,"Butchery Lane, Canterbury, Kent, CT1 2JR",CT1 2JR,51.2787273308982,1.0813721938205,www.canterbury-museums.co.uk
The Beaney House of Art and Knowledge,"18 High Street, Canterbury, Kent, CT1 2RA",CT1 2RA,51.2796865898443,1.07944293978299
Carshalton Water Tower,"West Street, Carshalton, Surrey",No Valid Postcode Found,,,www.carshaltonwatertower.co.uk
East Surrey Museum,"1 Stafford Road, Caterham, Surrey, CR3 6JG",CR3 6JG,51.2832954645698,-0.0802234677623,www.eastsurreymuseum.org.uk
Chiltern Open Air Museum,"Chiltern Open Air Museum, Newland Park, Gorelands Lane, Chalfont St Giles, Buckinghamshire, HP8 4AB",HP8 4AB,51.632187962782,-0.539643301557988,www.coam.org.uk
Historic Dockyard Chatham,"The Historic Dockyard, Chatham, Kent, ME4 4TZ",ME4 4TZ,51.3950851722222,0.528026357638006,www.chdt.org.uk
Jane Austen’s House Museum,"Chawton, Alton, Hampshire, GU34 1SD",GU34 1SD,51.1335356523306,-0.988663014537508,www.jane-austens-house-museum.org.uk
Chertsey Museum,"The Cedars, 33 Windsor Street, Chertsey, Surrey, KT16 8AT",KT16 8AT,51.3935030001413,-0.505514055767775,www.chertseymuseum.org.uk
Fishbourne Roman Palace,"Roman Way, Fishbourne, nr Chichester, West Sussex, PO19 3QR",PO19 3QR,50.8366366473842,-0.809365339085056,www.sussexpast.co.uk/fishbourne
Pallant House Gallery,"9 North Pallant, Chichester, West Sussex, PO19 1TJ",PO19 1TJ,50.8357157808229,-0.77770563343295,www.pallant.org.uk
Watts Gallery - Artists' Village,"Down Lane, Compton, Guildford, Surrey, GU3 1DQ",GU3 1DQ,51.2222313256645,-0.628736495507617,www.wattsgallery.org.uk
Stanley Spencer Gallery,"High St, Cookham, Berkshire, SL6 9SJ",SL6 9SJ,51.5596935212391,-0.708239870986405,www.stanleyspencer.org.uk
Cranbrook Museum,"Carriers Road, Cranbrook, Kent, TN17 3JX",TN17 3JX,51.0973828442301,0.535102883747908,www.cranbrookmuseum.org
Crawley Museum Centre,"Goffs Park House, Old Horsham Road, Southgate, Crawley, West Sussex
with a planned move in mid-2017 to The Tree, 103 High Street, Crawley, West Sussex, RH11 8PE, with new site in RH10 1DD",RH11 8PE,51.109749231363,-0.202455356105038,www.crawleymuseums.org
Ifield Watermill,"Hyde Drive, Ifield, Crawley, West Sussex, RH11 0PL",RH11 0PL,51.111142092549,-0.230088325163872,www.crawleymuseums.org
Cuckfield Museum,"Queen’s Hall, High St, Cuckfield, West Sussex, RH17 5EL",RH17 5EL,51.0076663438782,-0.141945028040235
Didcot Railway Centre,"Didcot, Oxon, OX11 7NJ",OX11 7NJ,51.6135811545816,-1.24443853564207,www.didcotrailwaycentre.org.uk
Ditchling Museum of Art and Craft,"Church Lane, Ditchling, East Sussex, BN6 8SP",BN6 8SP,50.9224160622206,-0.117611695072415,http://www.ditchlingmuseumartcraft.org.uk
Dover Museum,"Market Square, Dover, Kent, CT16 1PH",CT16 1PH,51.1246823468183,1.31315426882604,www.dovermuseum.co.uk
Hampton Court Palace,"East Molesey, Surrey, KT8 9AU",KT8 9AU,51.4038134856666,-0.337670183322755,www.hrp.org.uk
Redoubt Fortress and Military Museum,"Royal Parade, Eastbourne, East Sussex, BN22 7AQ",BN22 7AQ,50.7739619516872,0.299143647412383,www.eastbournemuseums.co.uk
Towner,"Devonshire Park, College Road, Eastbourne, East Sussex, BN21 4JJ",BN21 4JJ,50.7631264084247,0.282091583896688,www.townereastbourne.org.uk
Eastleigh Museum,"25 High Street, Eastleigh, Hampshire, SO50 5LF",SO50 5LF,50.968291183087,-1.35381494113325,www.hants.gov.uk/eastleigh-museum
Chiddingstone Castle,"Hill Hoath Road, Edenbridge, TN8 7AD",TN8 7AD,51.1858113928225,0.141991372223518,www.chiddingstonecastle.org.uk
Egham Museum,"Literary Institute, 51 High Street, Egham, Surrey, TW20 9EW",TW20 9EW,51.4318896891445,-0.548339951737648
Eton College Natural History Museum,"Eton College, Windsor, SL4 6DW",SL4 6DW,51.4920913931093,-0.60835432290468,http://www.facebook.com/ECNHM
Museum of Eton Life,"Eton College, Windsor, Berkshire, SL4 6DB",SL4 6DB,51.4909474861427,-0.608950916098161,www.etoncollege.com/CollegeCollections
"Royal Armouries, Fort Nelson","Fort Nelson, Portsdown Hill Road, Fareham, Hampshire, PO17 6AN",PO17 6AN,50.8608641148882,-1.1388895899427,www.royalarmouries.org
Royal Military Police Museum,"Defence College of Policing, PPt 38, Southwick Park, Mr Fareham, Hampshire, PO17 6EJ",PO17 6EJ,50.87565710151,-1.10190449965424,http://www.army.mod.uk/agc/provost/13312.aspx
Westbury Manor Museum,"84 West Street, Fareham, Hampshire, PO16 0JJ",PO16 0JJ,50.8523397959728,-1.18020140610966,www.hants.gov.uk/westbury-manor-museum
Rural Life Centre,"Old Kiln Museum, Reeds Road, Tilford, Farnham, Surrey, GU10 2DL",GU10 2DL,51.1832333528126,-0.772243979095845,www.rural-life.org.uk
Belmont House,"Belmont, Throwley, Faversham, Kent, ME13 0HH",ME13 0HH,51.2760156263295,0.846155468614307,www.belmont-house.org
Chart Gunpowder Mills,"Westbrook Walk, Faversham, Kent, ME13 7SE",ME13 7SE,51.3147317465464,0.881963462111661,www.faversham.org
Fleur de Lis Heritage Centre,"10-13 Preston Street, Faversham, Kent, ME13 8NS",ME13 8NS,51.3147780390187,0.89175445955983,www.faversham.org
Elham Valley Line Trust,"Peene Museum, Folkestone, Kent, CT18 8BA",CT18 8BA,51.0986880163038,1.12003544463921,www.elhamvalleylinetrust.org
Rockbourne Roman Villa,"Rockbourne, Fordingbridge, Hampshire, SP6 3PG",SP6 3PG,50.9528796648568,-1.83107740744016,www.hants.gov.uk/rockbourne-roman-villa
Dimbola Museum & Galleries,"Terrace Lane, Freshwater Bay, Isle of Wight, PO40 9QE",PO40 9QE,50.6723661250283,-1.51614061709875,www.dimbola.co.uk
Royal Engineers Museum Library & Archive,"Prince Arthur Road, Gillingham, Kent, ME4 4UG",ME4 4UG,51.3924424785511,0.533372053189919,www.remuseum.org.uk
Explosion! The Museum of Naval Firepower,"Priddy’s Hard, Gosport, Hampshire, PO12 4LE",PO12 4LE,50.8071490417688,-1.12656474928333,www.explosion.org.uk
Gosport Discovery Centre,"High Street, Gosport, Hampshire, PO12 1BT",PO12 1BT,50.7946459233348,-1.1249390420925,www.hants.gov.uk/gosport-gallery
Royal Navy Submarine Museum,"Haslar Jetty Road, Gosport, Hampshire, PO12 2AS",PO12 2AS,50.7881843633716,-1.11952686613384,www.submarine-museum.co.uk
Queen’s Royal Surrey Regiment Museum,"Clandon Park, Guildford, Surrey, GU4 7RQ",GU4 7RQ,51.2510174903355,-0.515339125672874,www.queensroyalsurreys.org.uk
Herstmonceux Museum,"Lime Park Heritage Trust
Herstmonceux Museum
Lime Park
Herstmonceux, BN27 1RF",BN27 1RF,50.8858457118713,0.325520864370358,http://www.cherrymortgages.com/historic_britain/herstmonceux_museum_sussex.htm
Kempton Great Engines Trust,"Kempton Park Waterworks, Snakey Lane, Hanworth, Middlesex, TW12 6XH",TW12 6XH,,,www.kemptonsteam.org
Hastings Museum and Art Gallery,"Bohemia Road, Hastings, East Sussex, TN34 1ET",TN34 1ET,50.8576339880155,0.56851397018582,www.hmag.org.uk
Shipwreck Museum,"Rock-a-Nore Road, Hastings, Sussex, TN34  3DW",TN34  3DW,50.8562758635525,0.594926474116626,www.shipwreckmuseum.co.uk
Spring Arts and Heritage Centre,"56 East Street, Havant, Hampshire, PO9 1BS",PO9 1BS,50.8503565911521,-0.977878839501226,www.thespring.co.uk
Lashenden Air Warfare Museum,"Headcorn Aerodrome, Headcorn, Ashford, Kent, TN27 9HX",TN27 9HX,51.1540633167913,0.645468758787905,www.lashendenairwarfaremuseum.co.uk
River & Rowing Museum,"Mill Meadows, Henley-on-Thames, Oxon, RG9 1BF",RG9 1BF,51.5322751202674,-0.89558705102306,www.rrm.co.uk
Herne Bay Museum & Gallery,"12 William Street, Herne Bay, Kent, CT6 5EJ",CT6 5EJ,51.3723590772217,1.12824159858844,www.museums@canterbury.co.uk
Horsham Museum and Art Gallery,"Causeway House, 9 Causeway, Horsham, West Sussex, RH12 1HE",RH12 1HE,51.0607972103872,-0.329535327307139,www.horshammuseum.org
Hove Museum and Art Gallery,"19 New Church Road, Hove, East Sussex, BN3 4AB",BN3 4AB,50.8293574653588,-0.180288505421437,www.brightonmuseums.org.uk
Hythe Local History Room,"Oaklands, 1 Stade Street, Hythe, Kent, CT21 6BG",CT21 6BG,51.0694818512726,1.08276387419768,http://www.hythetc.kentparishes.gov.uk
Anne of Cleves House and Museum,"52 Southover High Street, Lewes, East Sussex, BN7 1JA",BN7 1JA,50.8692051672007,0.00529987443988911,www.sussexpast.co.uk/anneofcleves
Lewes Castle and Barbican House Museum,"169 High Street, Lewes, East Sussex, BN7 1YE",BN7 1YE,50.8727221050961,0.00893317482688989,www.sussexpast.co.uk
Hollycombe - Steam in the Country,"Iron Hill, Midhurst Road, Liphook, Hampshire, GU30 7LP",GU30 7LP,51.0610852369507,-0.789176662450831,www.hollycombe.co.uk
Littlehampton Museum,"Manor House, Church Street, Littlehampton, West Sussex., BN17 5EW",BN17 5EW,50.8093872076712,-0.53940297365141,www.littlehamptonmuseum.co.uk
St Barbe Museum and Art Gallery,"New Street, Lymington, Hampshire, SO41 9BH",SO41 9BH,50.7589936934775,-1.54302219730738,www.stbarbe-museum.org.uk
New Forest Centre,"High Street, Lyndhurst, Hampshire, SO43 7NY",SO43 7NY,50.8719162370939,-1.57467766942238,www.newforestcentre.org.uk
Kent Life,"Lock Lane, Sandling, Maidstone, Kent, ME14 3AU",ME14 3AU,51.2971468777344,0.508696736490861,www.kentlife.org.uk
Maidstone Museum and Bentlif Art Gallery,"St Faith’s Street, Maidstone, Kent, ME14 1LH",ME14 1LH,51.2758235773316,0.519966491669559,www.museum.maidstone.gov.uk
Queen’s Own Royal West Kent Regimental Museum,"Maidstone Museum & Bentlif Art Gallery, St Faith’s Street, Maidstone, Kent, ME14 1LH",ME14 1LH,51.2758235773316,0.519966491669559,www.museum.maidstone.gov.uk
Tyrwhitt-Drake Museum of Carriages,"Archbishop’s Stables, Mill Street, Maidstone, Kent, ME15 6YE",ME15 6YE,51.2713727319588,0.521170995960112,http://museum.maidstone.gov.uk/our-museums/tyrwhitt-drake/
Meopham Windmill,"Meopham Green, Wrotham Road, Meopham, Gravesend, Kent, DA13 0QA",DA13 0QA,51.3606172679239,0.35214995711222,www.meopham.org
Museum of Army Flying,"Middle Wallop, Stockbridge, Hampshire, SO20 8DY",SO20 8DY,51.1524547041125,-1.56668666570974,www.armyflying.com
Bletchley Park,"Sherwood Drive, Bletchley, Milton Keynes, MK3 6EB",MK3 6EB,51.9973034675802,-0.74308197800802,www.bletchleypark.org.uk
Milton Keynes Museum,"McConnell Drive, Wolverton, Milton Keynes, MK12 5EL",MK12 5EL,52.0562703710965,-0.802933714114365,www.mkmuseum.org.uk
Minster Abbey Gatehouse Museum,"Union Road, Minster in Sheppey, Sheerness, Kent, ME12 2HW",ME12 2HW,51.4224792122201,0.811014170454637,www.swale.gov.ukwww.swaletourism.co.uk
West Berkshire Museum,"West Berkshire Museum, The Wharf, Newbury, Berkshire, RG14 5SH",RG14 5SH,51.4014018073368,-1.30939360666123,www.westberkshiremuseum.org.uk
Planet Earth Museum,"Paradise Park, Avis Road, Newhaven, East Sussex, BN9 ODH",No Valid Postcode Found,,,www.paradisepark.co.uk
Newport Pagnell Historical Society Museum,"Chandos Hall, Silver Street, Newport Pagnell, Buckinghamshire, MK16 0EW",MK16 0EW,52.0856601129171,-0.723058356816411,www.mkheritage.co.uk/nphs/
Newport Roman Villa,"Cypress Road, Newport, Isle of Wight, PO30 1HA",PO30 1HA,50.6940128539573,-1.2912871468513,www.iwight.com/museums
Cowper and Newton Museum,"Orchard Side, Market Place, Olney, Buckinghamshire, MK46 4AJ",MK46 4AJ,52.1525245375767,-0.701457571604875,www.cowperandnewtonmuseum.org.uk
Maison Dieu,"Water Lane, Ospringe, ME13 0DW",ME13 0DW,51.2966571139948,0.865695391613997,www.english-heritage.org.uk & www.faversham.org
Christ Church Picture Gallery,"Christ Church, Oxford, OX1 1DP",OX1 1DP,51.7499045121422,-1.25655129297245,www.chch.ox.ac.uk
Modern Art Oxford,"30 Pembroke Street, Oxford, OX1 1BP",OX1 1BP,51.7505605099852,-1.25791669741134,www.modernartoxford.org.uk
Museum of Oxford,"Town Hall St Aldates, Oxford, OX1 1BX",OX1 1BX,51.7516511070158,-1.25691375808239,www.museumofoxford.org
Soldiers of Oxfordshire Museum,"Office Address Harrisons Lane, Woodstock Oxfordshire OX201SS, OX20 1SS",OX201SS,51.8483785012102,-1.3577569431489,www.sofo.org.uk
Flora Twort Gallery (within Petersfield Museum),"Petersfield Museum
St Peters Road
Petersfield, GU32 3HS",GU32 3HS,51.0034862048165,-0.937875482960694,www.petersfieldmuseum.co.uk
Petersfield Museum,"St Peters Road, Petersfield, Hampshire, GU32 3HU",GU32 3HU,,,www.petersfieldmuseum.co.uk
Uppark,"South Harting, Petersfield, West Sussex, GU31 5QR",GU31 5QR,50.9574849339314,-0.889090329532814,www.nationaltrust.org.uk/uppark
Petworth Cottage Museum,"346 High Street, Petworth, West Sussex, GU28 0AU",GU28 0AU,50.9853889393008,-0.608641955177845,www.petworthcottagemuseum.co.uk
Charles Dickens’ Birthplace Museum,"393 Old Commercial Road, Portsmouth, PO1 4QL",PO1 4QL,50.8068121981828,-1.08725845996224,www.portsmouthmuseums.co.uk
City Museum & Records Office,"Museum Road, Old Portsmouth, Hampshire, PO1 2LJ",PO1 2LJ,50.7916420999824,-1.09775479643276,www.portsmouthmuseums.co.uk
City of Portsmouth Preserved Transport Depot,"Cranleigh Road, Porchester, Hampshire",No Valid Postcode Found,,,www.cpptd.co.uk
D-Day Museum,"Clarence Esplanade, Portsmouth, PO5 3NT",PO5 3NT,,,www.portsmouthmuseums.co.uk
Eastney Industrial Museum,"Henderson Road, Eastney, Portsmouth, PO4 9JF",PO4 9JF,50.7885914208563,-1.04550687575838,www.portsmouthmuseums.co.uk
HMS Warrior 1860,"Victory Gate, HM Naval Base, Portsmouth, PO1 3QX",PO1 3QX,50.7989750189316,-1.10760332094544,www.hmswarrior.org
Mary Rose Museum,"HM Naval Base, Portsmouth, Hampshire, PO1 3PY",PO1 3PY,50.8022132541912,-1.10888978889693,www.maryrose.org
National Museum of the Royal Navy,"HM Naval Base (PP66), Portsmouth, PO1 3NH",PO1 3NH,50.8011206266028,-1.10830037214153,www.nmrn.org.uk
"National Museum of the Royal Navy, Portsmouth","HM Naval Base (PP66), Portsmouth, PO1 3NH",PO1 3NH,50.8011206266028,-1.10830037214153,www.nmrn.org.uk
Natural History Museum Cumberland House,"Eastern Parade, Southsea, Portsmouth, PO4 9RF",PO4 9RF,50.7820192771068,-1.06907393279959,www.portsmouthmuseums.co.uk
Royal Marines Museum,"Southsea, Hampshire, PO4 9PX",PO4 9PX,50.7856322974379,-1.05206425502119,www.royalmarinesmuseum.co.uk
Southsea Castle,"Clarence Esplanade, Southsea, Portsmouth, PO5 3PA",PO5 3PA,50.7781012588569,-1.08879597647781,www.portsmouthmuseums.co.uk
Museum of English Rural Life,"The University of Reading, Redlands Road, Reading, Berkshire, RG1 5EX",RG1 5EX,51.4483049446166,-0.959003385912708,www.reading.ac.uk/merl
Ure Museum of Greek Archaeology,"Department of Classics,
HumSS Building
University of Reading 
Whiteknights
Reading, RG6 6AA",RG6 6AA,51.4576269642365,-0.945635861937744,www.rdg.ac.uk/ure/
Guildhall Museum,"17 High Street, Rochester, Kent, ME1 1PY",ME1 1PY,51.39090975057,0.503013752843629,www.guildhallmuseumrochester.co.uk
C M Booth Collection of Historic Vehicles,"63-67 High Street, Rolvenden, near Cranbrook, Kent, TN17 4LP",TN17 4LP,51.0526381339129,0.630278584311923,www.morganmuseum.org.uk
Rye Art Gallery,"107 High Street, Rye, TN31 7JE",TN31 7JE,50.9516791801593,0.734727156234153,www.ryeartgallery.co.uk
Rye Castle Museum,"3 East Street, Rye, East Sussex, TN31 7JY",TN31 7JY,50.9510587515749,0.734719202550843,www.ryemuseum.co.uk
Dinosaur Isle,"Culver Parade, Sandown, Isle of Wight, PO36 8QA",PO36 8QA,50.6592289068746,-1.14276507898084,www.dinosaurisle.com
Sandwich Guildhall Museum,"Guildhall, Cattle Market, Sandwich, Kent, CT13 9AH",CT13 9AH,51.2747986890609,1.33859284161201,www.sandwichtowncouncil.gov.uk
Gilbert White & The Oates Collections,"High Street, Selborne, Alton, Hampshire, GU34 3JH",GU34 3JH,51.0976306407563,-0.943075151788308,www.gilbertwhiteshouse.org.uk
Sevenoaks Museum,"Sevenoaks Kaleidoscope (Library Museum and Art Gallery), Buckhurst Lane, Sevenoaks, Kent, TN13 1LQ",TN13 1LQ,51.2713541902693,0.194941881417142,www.kent.gov.uk/leisure-and-community/history-and -leisure/museums/sevenoaksmuseum
Weald and Downland Living Museum,"Singleton, Chichester, West Sussex, PO18 0EU",PO18 0EU,50.9073000857409,-0.756531383304666,www.wealddown.co.uk
Slough Museum,"278-286 High Street, Slough, Berkshire, SL1 1NB",SL1 1NB,51.5071454142747,-0.586656352216989,www.sloughmuseum.co.uk
SeaCity Museum,"SEACITY MUSEUM, Havelock Road, Southampton, Hampshire, SO14 7FY",SO14 7FY,50.9078538974863,-1.40828583806214,www.seacitymuseum.co.uk
Tudor House and Garden,"Bugle Street, Old Town, Southampton, SO14 2AD",SO14 2AD,50.8998180217997,-1.40541559773411
Manor Cottage Heritage Centre,"Manor Cottage, Southwick Street, Southwick, West Sussex",No Valid Postcode Found,,
Spelthorne Museum,"Staines Library, Friends Walk, Staines, Middlesex, TW18 4PM",No Valid Postcode Found,,,www.spelthornemuseum.org.uk
Steyning Museum,"Church Street, Steyning, West Sussex, BN44 3YB",BN44 3YB,50.8888179055795,-0.32730583843957,http://steyningmuseum.org.uk
Tenterden and District Museum,"Station Road, Tenterden, Kent, TN30 6HN",TN30 6HN,51.0685656844821,0.684884451118433,www.tenterderdenmuseum.co.uk
Natural History Museum at Tring,"Akeman Street, Tring, Hertfordshire, HP23 6AP",HP23 6AP,51.7909803438081,-0.660986770733616,www.nhm.ac.uk/tring
Ventnor Heritage Museum,"11 Spring Hill, Ventnor, Isle of Wight, PO38 1PE",PO38 1PE,50.5956979068303,-1.20426256251818,www.ventnorheritage.org.uk
Brooklands Museum,"Brooklands Road, Weybridge, Surrey, KT13 0QN",KT13 0QN,51.3549071414049,-0.464431918862074,www.brooklandsmuseum.com
Whitchurch Silk Mill,"28 Winchester Street, Whitchurch, Hampshire, RG28 7AL",RG28 7AL,51.2291519274964,-1.33876979668036,www.whitchurchsilkmill.org.uk
Whitstable Museum & Gallery,"Oxford Street, Whitstable, Kent, CT5 1DB",CT5 1DB,51.3560641183776,1.02441725260848,www.canterbury-museums.co.uk
City Space at Winchester Discovery Centre,"Jewry Street, Winchester, Hampshire, SO23 8SB",SO23 8SB,51.0659488529193,-1.31605085054996,http://hampshireculturaltrust.org.uk/city-space
Gurkha Museum,"Peninsula Barracks, Romsey Road, Winchester, SO23 8TS",SO23 8TS,51.0628762282371,-1.32114778910397,www.thegurkhamuseum.co.uk
Royal Green Jackets (Rifles) Museum,"Peninsula Barracks, Romsey Road, Winchester, SO23 8TS",SO23 8TS,51.0628762282371,-1.32114778910397,www.wrgjmuseum.co.uk
Westgate Museum,"High Street, Winchester, Hampshire, SO23 9AP",SO23 9AP,51.0633961982092,-1.31778663445128
Winchester City Museum,"The Square, Winchester, Hampshire, SO23 9ES",SO23 9ES,51.0619677607104,-1.31493935153787,http://hampshireculturaltrust.org.uk/winchester-city-museum
Royal Berkshire Yeomanry Cavalry Museum,"TA Centre, Bolton Road, Windsor, Berkshire, SL4 3JG",SL4 3JG,51.47071570321,-0.610502125163441
Windsor & Royal Borough Museum,"The Guildhall, High Street, Windsor, Berkshire, SL4 1LR",SL4 1LR,51.4823758691408,-0.607253097712004,http://www3.rbwm.gov.uk/info/200199/museums_and_galleries/871/windsor_and_royal_borough_museum
Witney & District Museum & Art Gallery,"75 Gloucester Court Mews, High St, Witney, Oxon, OX28 6LX",OX28 6LX,51.7897911759109,-1.48958266338025,www.witneyhistory.org
The Lightbox Gallery and Museum,"Chobham Road, Woking, Surrey, GU21 4AA",GU21 4AA,51.3222710722908,-0.558318572411281,www.thelightbox.org.uk
Museum of Berkshire Aviation,"Mohawk Way, Woodley, Reading, Berkshire, RG5 4UE",RG5 4UE,51.4522080417989,-0.881919161793118,www.museumofberkshireaviation.co.uk
Oxfordshire County Council: Museum Services,"Fletcher’s House, Park Street, Woodstock, OX20 1SN",OX20 1SN,51.847791035971,-1.35719913285673,oxfordshire.gov.uk/museums
The Shipwreck Centre and Maritime Museum,"The Shipwreck Centre, 
Arreton Barns Craft Village 
Main Road 
Arreton, PO30 3AA",PO30 3AA,50.6779303679356,-1.24632384253603
Alexander Keiller Museum,"High St, Avebury, Marlborough, Wiltshire, SN8 1RF",SN8 1RF,51.427914345824,-1.85735350676795
American Museum in Britain,"Claverton Manor, Bath, BA2 7BD",BA2 7BD,51.375121515264,-2.31121091532737,www.americanmuseum.org
Bath Postal Museum,"27a Northgate Street, Bath, BA1 1AJ",BA1 1AJ,51.3833890878307,-2.35996550850243,www.bathpostalmuseum.org
Bath Preservation Trust,"1 Royal Crescent, Bath, BA1 2LR",BA1 2LR,51.3870530658727,-2.36725149351365,www.bath-preservation-trust.org.uk
Beckford’s Tower and Museum,"Lansdown, Bath, Somerset, BA1 9BH",BA1 9BH,51.4077626656013,-2.38077392537383,www.beckfordstower.org.uk
Fashion Museum,"Assembly Rooms, Bennett Street, Bath, Somerset, BA1 2QH",BA1 2QH,51.386231895052,-2.36241643746812,www.fashionmuseum.co.uk
Herschel Museum of Astronomy,"19 New King Street, Bath, Somerset, BA1 2BL",BA1 2BL,51.382388479791,-2.36658188533003,www.herschelmsuseum.org.uk
Holburne Museum,"Great Pulteney Street, Bath, BA2 4DB",BA2 4DB,51.3857453851743,-2.35091633912384,www.holburne.org
Museum of Bath Architecture,"The Countess of Huntingdon’s Chapel, The Vineyards, The Paragon, Bath, BA1 5NA",BA1 5NA,51.3869850105444,-2.3602093021719,www.bath-preservation-trust.org.uk
Museum of Bath at Work,"Julian Road, Bath, Somerset, BA1 2RH",BA1 2RH,51.3879224224389,-2.36238668844423,www.bath-at-work.org.uk
Museum of East Asian Art,"12 Bennett Street, Bath, Somerset, BA1 2QJ",BA1 2QJ,51.3864804509677,-2.36345308174268,www.meaa.org.uk
No. 1 Royal Crescent,"Bath, Somerset, BA1 2LR",BA1 2LR,51.3870530658727,-2.36725149351365,www.bath-preservation-trust.org.uk
Roman Baths Museum,"Pump Room, Stall Street, Bath, Somerset, BA1 1LZ",BA1 1LZ,51.3811317437952,-2.36010584573741,www.romanbaths.co.uk
Sally Lunn's Historic Eating House & Museum,"Sally Lunn's House, 4 North Parade Passage, Bath, BA1 1NX",BA1 1NX,51.3807139039516,-2.35855074043988,www.sallylunns.co.uk
"Dr Jenner's House, Museum and Garden","The Chantry, Church Lane, Berkeley, Gloucestershire, GL13 9BN",GL13 9BN,51.6902697832228,-2.45741257617916,www.jennermuseum.com
Blandford Forum Museum,"Bere’s Yard, Market Place, Blandford Forum, Dorset, DT11 7HQ",DT11 7HQ,50.8554806009384,-2.16419218798345,www.blandfordtownmuseum.org
Royal Signals Museum,"Blandford Camp, Dorset, DT11 8RH",DT11 8RH,50.8682983580081,-2.12510132174922,www.royalsignalsmuseum.com
Cornwall's Regimental Museum,"The Keep, Bodmin, Cornwall, PL31 1EG",PL31 1EG,50.1184952535044,-5.143742472447,https://cornwalls-regimentalmuseum.org/
Museum of Witchcraft and Magic,"The Harbour, Boscastle, Cornwall, PL35 OHD",No Valid Postcode Found,,,www.museumofwitchcraft.com
Russell-Cotes Art Gallery and Museum,"East Cliff, Bournemouth, Dorset, BH1 3AA",BH1 3AA,50.7175877550122,-1.8708486118438,www.russell-cotes.bournemouth.gov.uk
Cotswold Motoring Museum and Toy Collection,"The Old Mill, Bourton on the Water, Gloucestershire, GL54 2BY",GL54 2BY,51.8840149933294,-1.75947624298769,www.cotswoldmotormuseum.co.uk
Bradford on Avon Museum,"Bridge Street, Bradford on Avon, Wiltshire, BA15 1BY",BA15 1BY,51.3463141114786,-2.25035322301354,bradfordonavonmuseum.co.uk
Braunton and District Museum,"The Bakehouse Centre, Caen Street, Braunton, Devon, EX33 1AA",EX33 1AA,51.1086626520561,-4.16256599729952,www.devonmuseums.net/braunton
Bridport Museum,"Bridport Museum, 25 South Street, Bridport, Dorset, DT6 3RJ, DT6 3NR",DT6 3RJ,50.7321948509013,-2.75882095906376,www.bridportmuseum.co.uk
